{"type": "FeatureCollection", "features": [{"type": "Feature", "properties": {"name": "Thalagattapura"}, "geometry": {"type": "Point", "coordinates": [77.53685, 12.86958]}}, {"type": "Feature", "properties": {"name": "Patalamma Temple"}, "geometry": {"type": "Point", "coordinates": [77.53014, 12.90477]}}, {"type": "Feature", "properties": {"name": "Gubbalala Gate"}, "geometry": {"type": "Point", "coordinates": [77.55134, 12.88431]}}, {"type": "Feature", "properties": {"name": "Bhagya Nagara"}, "geometry": {"type": "Point", "coordinates": [77.58551, 12.86084]}}, {"type": "Feature", "properties": {"name": "Konanakunte"}, "geometry": {"type": "Point", "coordinates": [77.56663, 12.88613]}}, {"type": "Feature", "properties": {"name": "Subramanyapura Police Station"}, "geometry": {"type": "Point", "coordinates": [77.54418, 12.90147]}}, {"type": "Feature", "properties": {"name": "Anjanapura"}, "geometry": {"type": "Point", "coordinates": [77.56393, 12.86196]}}, {"type": "Feature", "properties": {"name": "Thalagattapura Metro Station"}, "geometry": {"type": "Point", "coordinates": [77.53854, 12.87128]}}, {"type": "Feature", "properties": {"name": "Anjanapura 10th Block"}, "geometry": {"type": "Point", "coordinates": [77.56907, 12.85593]}}, {"type": "Feature", "properties": {"name": "Sangam Circle"}, "geometry": {"type": "Point", "coordinates": [77.57875, 12.91704]}}, {"type": "Feature", "properties": {"name": "Royal Layout"}, "geometry": {"type": "Point", "coordinates": [77.57581, 12.86933]}}, {"type": "Feature", "properties": {"name": "Sarathi Nagara"}, "geometry": {"type": "Point", "coordinates": [77.57322, 12.87387]}}, {"type": "Feature", "properties": {"name": "Poornaprajna Layout"}, "geometry": {"type": "Point", "coordinates": [77.53585, 12.90882]}}, {"type": "Feature", "properties": {"name": "Pipeline Vasanthapura"}, "geometry": {"type": "Point", "coordinates": [77.55511, 12.89504]}}, {"type": "Feature", "properties": {"name": "Uttarahalli"}, "geometry": {"type": "Point", "coordinates": [77.5431, 12.90544]}}, {"type": "Feature", "properties": {"name": "Hari Nagara Cross"}, "geometry": {"type": "Point", "coordinates": [77.56726, 12.87916]}}, {"type": "Feature", "properties": {"name": "Sowdamini Kalyana Mantapa"}, "geometry": {"type": "Point", "coordinates": [77.56669, 12.8839]}}, {"type": "Feature", "properties": {"name": "Jayanagara 40th Cross"}, "geometry": {"type": "Point", "coordinates": [77.58068, 12.91989]}}, {"type": "Feature", "properties": {"name": "JP Nagara Metro Station"}, "geometry": {"type": "Point", "coordinates": [77.57299, 12.90795]}}, {"type": "Feature", "properties": {"name": "Jayanagara 5th Block"}, "geometry": {"type": "Point", "coordinates": [77.58413, 12.91701]}}, {"type": "Feature", "properties": {"name": "Uttarahalli"}, "geometry": {"type": "Point", "coordinates": [77.54271, 12.90573]}}, {"type": "Feature", "properties": {"name": "Konanakunte Reliance Fresh"}, "geometry": {"type": "Point", "coordinates": [77.56613, 12.88295]}}, {"type": "Feature", "properties": {"name": "Subramanyapura Police Station"}, "geometry": {"type": "Point", "coordinates": [77.54414, 12.90144]}}, {"type": "Feature", "properties": {"name": "Anjanapura Cross"}, "geometry": {"type": "Point", "coordinates": [77.56091, 12.86183]}}, {"type": "Feature", "properties": {"name": "Anjanapura 2nd Block Cross (LBSN)"}, "geometry": {"type": "Point", "coordinates": [77.55945, 12.86053]}}, {"type": "Feature", "properties": {"name": "Avalahalli"}, "geometry": {"type": "Point", "coordinates": [77.56665, 12.87293]}}, {"type": "Feature", "properties": {"name": "Depot-34 Gate"}, "geometry": {"type": "Point", "coordinates": [77.58571, 12.87021]}}, {"type": "Feature", "properties": {"name": "Vajragiri Estate"}, "geometry": {"type": "Point", "coordinates": [77.55663, 12.85769]}}, {"type": "Feature", "properties": {"name": "Metro"}, "geometry": {"type": "Point", "coordinates": [77.56718, 12.89312]}}, {"type": "Feature", "properties": {"name": "Kidwai Layout"}, "geometry": {"type": "Point", "coordinates": [77.56321, 12.85885]}}, {"type": "Feature", "properties": {"name": "Uttarahalli Water Tank"}, "geometry": {"type": "Point", "coordinates": [77.53463, 12.90841]}}, {"type": "Feature", "properties": {"name": "Surabhi Layout"}, "geometry": {"type": "Point", "coordinates": [77.58189, 12.86746]}}, {"type": "Feature", "properties": {"name": "JP Nagara Metro Station"}, "geometry": {"type": "Point", "coordinates": [77.57312, 12.908]}}, {"type": "Feature", "properties": {"name": "Sarakki"}, "geometry": {"type": "Point", "coordinates": [77.57299, 12.9097]}}, {"type": "Feature", "properties": {"name": "Banashankari Hunasemara"}, "geometry": {"type": "Point", "coordinates": [77.57413, 12.91966]}}, {"type": "Feature", "properties": {"name": "Konanakunte Cross  Metro Station"}, "geometry": {"type": "Point", "coordinates": [77.56257, 12.8889]}}, {"type": "Feature", "properties": {"name": "Vajramuneshwara Gate"}, "geometry": {"type": "Point", "coordinates": [77.53314, 12.86483]}}, {"type": "Feature", "properties": {"name": "Banashankari"}, "geometry": {"type": "Point", "coordinates": [77.57373, 12.91631]}}, {"type": "Feature", "properties": {"name": "Arehalli"}, "geometry": {"type": "Point", "coordinates": [77.53855, 12.90849]}}, {"type": "Feature", "properties": {"name": "Hunasemara"}, "geometry": {"type": "Point", "coordinates": [77.57423, 12.91966]}}, {"type": "Feature", "properties": {"name": "Yalachenahalli Metro Station"}, "geometry": {"type": "Point", "coordinates": [77.57029, 12.89609]}}, {"type": "Feature", "properties": {"name": "Poornaprajna Layout"}, "geometry": {"type": "Point", "coordinates": [77.53592, 12.90877]}}, {"type": "Feature", "properties": {"name": "Sharadanagara"}, "geometry": {"type": "Point", "coordinates": [77.55948, 12.89261]}}, {"type": "Feature", "properties": {"name": "Gubbalala Gate"}, "geometry": {"type": "Point", "coordinates": [77.55153, 12.88423]}}, {"type": "Feature", "properties": {"name": "Yadalam Nagara"}, "geometry": {"type": "Point", "coordinates": [77.54823, 12.89645]}}, {"type": "Feature", "properties": {"name": "Jambu Savari Dinne"}, "geometry": {"type": "Point", "coordinates": [77.58097, 12.86571]}}, {"type": "Feature", "properties": {"name": "Ragi Machine"}, "geometry": {"type": "Point", "coordinates": [77.56026, 12.89166]}}, {"type": "Feature", "properties": {"name": "Subramanyapura KEB"}, "geometry": {"type": "Point", "coordinates": [77.54636, 12.89758]}}, {"type": "Feature", "properties": {"name": "Konanakunte"}, "geometry": {"type": "Point", "coordinates": [77.56662, 12.88607]}}, {"type": "Feature", "properties": {"name": "Jaraganahalli Cross"}, "geometry": {"type": "Point", "coordinates": [77.57344, 12.9014]}}, {"type": "Feature", "properties": {"name": "Jambu Savari Dinne"}, "geometry": {"type": "Point", "coordinates": [77.5809, 12.86577]}}, {"type": "Feature", "properties": {"name": "Sarakki"}, "geometry": {"type": "Point", "coordinates": [77.57288, 12.90966]}}, {"type": "Feature", "properties": {"name": "Arehalli"}, "geometry": {"type": "Point", "coordinates": [77.53841, 12.90857]}}, {"type": "Feature", "properties": {"name": "Konanakunte Cross"}, "geometry": {"type": "Point", "coordinates": [77.56442, 12.89058]}}, {"type": "Feature", "properties": {"name": "Subramanyapura KEB"}, "geometry": {"type": "Point", "coordinates": [77.54629, 12.89767]}}, {"type": "Feature", "properties": {"name": "Konanakunte Cross"}, "geometry": {"type": "Point", "coordinates": [77.56414, 12.89044]}}, {"type": "Feature", "properties": {"name": "Subramanyapura Post Office"}, "geometry": {"type": "Point", "coordinates": [77.54391, 12.89884]}}, {"type": "Feature", "properties": {"name": "Anjanapura"}, "geometry": {"type": "Point", "coordinates": [77.56385, 12.862]}}, {"type": "Feature", "properties": {"name": "Anjanapura"}, "geometry": {"type": "Point", "coordinates": [77.56381, 12.86196]}}, {"type": "Feature", "properties": {"name": "Hari Nagara Cross"}, "geometry": {"type": "Point", "coordinates": [77.5673, 12.87918]}}, {"type": "Feature", "properties": {"name": "Vasanthapura"}, "geometry": {"type": "Point", "coordinates": [77.55244, 12.89626]}}, {"type": "Feature", "properties": {"name": "Raghuvanahalli Cross"}, "geometry": {"type": "Point", "coordinates": [77.54602, 12.88072]}}, {"type": "Feature", "properties": {"name": "Bhagya Nagara"}, "geometry": {"type": "Point", "coordinates": [77.58543, 12.86091]}}, {"type": "Feature", "properties": {"name": "Doddakallasandra Metro Station"}, "geometry": {"type": "Point", "coordinates": [77.55312, 12.88467]}}, {"type": "Feature", "properties": {"name": "Banashankari Bus Station"}, "geometry": {"type": "Point", "coordinates": [77.57272, 12.91779]}}, {"type": "Feature", "properties": {"name": "Vajarahalli Metro Station"}, "geometry": {"type": "Point", "coordinates": [77.54498, 12.87768]}}, {"type": "Feature", "properties": {"name": "Sowdamini Kalyana Mantapa"}, "geometry": {"type": "Point", "coordinates": [77.56663, 12.88386]}}, {"type": "Feature", "properties": {"name": "Nandi Garden Kothanur"}, "geometry": {"type": "Point", "coordinates": [77.56566, 12.86748]}}, {"type": "Feature", "properties": {"name": "BK Circle"}, "geometry": {"type": "Point", "coordinates": [77.58325, 12.87062]}}, {"type": "Feature", "properties": {"name": "Mantri Alpyne Apartment"}, "geometry": {"type": "Point", "coordinates": [77.52725, 12.90453]}}, {"type": "Feature", "properties": {"name": "Marenahalli (Marenahalli Metro Station)"}, "geometry": {"type": "Point", "coordinates": [77.58858, 12.91688]}}, {"type": "Feature", "properties": {"name": "Vasanthapura"}, "geometry": {"type": "Point", "coordinates": [77.55242, 12.89635]}}, {"type": "Feature", "properties": {"name": "BK Circle"}, "geometry": {"type": "Point", "coordinates": [77.58309, 12.87056]}}, {"type": "Feature", "properties": {"name": "Konanakunte Reliance Fresh"}, "geometry": {"type": "Point", "coordinates": [77.56616, 12.88297]}}, {"type": "Feature", "properties": {"name": "Jaraganahalli Cross"}, "geometry": {"type": "Point", "coordinates": [77.57331, 12.90142]}}, {"type": "Feature", "properties": {"name": "Depot-34 Gate"}, "geometry": {"type": "Point", "coordinates": [77.58567, 12.87023]}}, {"type": "Feature", "properties": {"name": "Jambu Savari Dinne"}, "geometry": {"type": "Point", "coordinates": [77.58098, 12.86562]}}, {"type": "Feature", "properties": {"name": "Bayyanapalya"}, "geometry": {"type": "Point", "coordinates": [77.54355, 12.87554]}}, {"type": "Feature", "properties": {"name": "Sarathi Nagara"}, "geometry": {"type": "Point", "coordinates": [77.57312, 12.87397]}}, {"type": "Feature", "properties": {"name": "Metro"}, "geometry": {"type": "Point", "coordinates": [77.56772, 12.89336]}}, {"type": "Feature", "properties": {"name": "Doddakallasandra Metro Station"}, "geometry": {"type": "Point", "coordinates": [77.55255, 12.88469]}}, {"type": "Feature", "properties": {"name": "Anjanapura 2nd Block Cross (LBSN)"}, "geometry": {"type": "Point", "coordinates": [77.55939, 12.86054]}}, {"type": "Feature", "properties": {"name": "Jambu Savari Dinne"}, "geometry": {"type": "Point", "coordinates": [77.58093, 12.86587]}}, {"type": "Feature", "properties": {"name": "Konanakunte Cross"}, "geometry": {"type": "Point", "coordinates": [77.56431, 12.89025]}}, {"type": "Feature", "properties": {"name": "Banashankari Bus Station"}, "geometry": {"type": "Point", "coordinates": [77.5727, 12.91736]}}, {"type": "Feature", "properties": {"name": "Uttarahalli Water Tank"}, "geometry": {"type": "Point", "coordinates": [77.53458, 12.90842]}}, {"type": "Feature", "properties": {"name": "Beereshwara Nagara"}, "geometry": {"type": "Point", "coordinates": [77.56545, 12.88205]}}, {"type": "Feature", "properties": {"name": "Jayanagara 5th Block"}, "geometry": {"type": "Point", "coordinates": [77.583, 12.91712]}}, {"type": "Feature", "properties": {"name": "Pipeline Vasanthapura"}, "geometry": {"type": "Point", "coordinates": [77.55519, 12.895]}}, {"type": "Feature", "properties": {"name": "Thalaghattapura Metro Station"}, "geometry": {"type": "Point", "coordinates": [77.53833, 12.87143]}}, {"type": "Feature", "properties": {"name": "Mantri Alpyne Apartment"}, "geometry": {"type": "Point", "coordinates": [77.5271, 12.90449]}}, {"type": "Feature", "properties": {"name": "Doddakallasandra"}, "geometry": {"type": "Point", "coordinates": [77.55671, 12.88596]}}, {"type": "Feature", "properties": {"name": "Thalagattapura"}, "geometry": {"type": "Point", "coordinates": [77.53705, 12.86958]}}, {"type": "Feature", "properties": {"name": "Kidwai Layout"}, "geometry": {"type": "Point", "coordinates": [77.56316, 12.85885]}}, {"type": "Feature", "properties": {"name": "Vinayaka Chitramandira"}, "geometry": {"type": "Point", "coordinates": [77.56994, 12.87488]}}, {"type": "Feature", "properties": {"name": "Doddakallasandra"}, "geometry": {"type": "Point", "coordinates": [77.5565, 12.88574]}}, {"type": "Feature", "properties": {"name": "Glass Factory"}, "geometry": {"type": "Point", "coordinates": [77.5669, 12.87655]}}, {"type": "Feature", "properties": {"name": "Vajarahalli Metro Station"}, "geometry": {"type": "Point", "coordinates": [77.54459, 12.8773]}}, {"type": "Feature", "properties": {"name": "Bayyanapalya"}, "geometry": {"type": "Point", "coordinates": [77.54374, 12.87558]}}, {"type": "Feature", "properties": {"name": "Vajramuneshwara Gate"}, "geometry": {"type": "Point", "coordinates": [77.53334, 12.86481]}}, {"type": "Feature", "properties": {"name": "Glass Factory"}, "geometry": {"type": "Point", "coordinates": [77.5669, 12.8765]}}, {"type": "Feature", "properties": {"name": "Patalamma Temple"}, "geometry": {"type": "Point", "coordinates": [77.53011, 12.90481]}}, {"type": "Feature", "properties": {"name": "Sangam Circle"}, "geometry": {"type": "Point", "coordinates": [77.57733, 12.91763]}}, {"type": "Feature", "properties": {"name": "Yalachenahalli Metro Station"}, "geometry": {"type": "Point", "coordinates": [77.5701, 12.89609]}}, {"type": "Feature", "properties": {"name": "Yadalam Nagara"}, "geometry": {"type": "Point", "coordinates": [77.54833, 12.89637]}}, {"type": "Feature", "properties": {"name": "Uttarahalli"}, "geometry": {"type": "Point", "coordinates": [77.54298, 12.90558]}}, {"type": "Feature", "properties": {"name": "Nandi Garden Kothanur"}, "geometry": {"type": "Point", "coordinates": [77.56561, 12.86745]}}, {"type": "Feature", "properties": {"name": "Konanakunte Cross"}, "geometry": {"type": "Point", "coordinates": [77.56365, 12.88952]}}, {"type": "Feature", "properties": {"name": "Yalachenahalli"}, "geometry": {"type": "Point", "coordinates": [77.57167, 12.89764]}}, {"type": "Feature", "properties": {"name": "Subramanyapura Post Office"}, "geometry": {"type": "Point", "coordinates": [77.54392, 12.89879]}}, {"type": "Feature", "properties": {"name": "Royal Layout"}, "geometry": {"type": "Point", "coordinates": [77.57581, 12.86924]}}, {"type": "Feature", "properties": {"name": "Surabhi Layout"}, "geometry": {"type": "Point", "coordinates": [77.58187, 12.86762]}}, {"type": "Feature", "properties": {"name": "Ragi Machine"}, "geometry": {"type": "Point", "coordinates": [77.56035, 12.8916]}}, {"type": "Feature", "properties": {"name": "Konanakunte Cross  Metro Station"}, "geometry": {"type": "Point", "coordinates": [77.56306, 12.88907]}}, {"type": "Feature", "properties": {"name": "Yalachenahalli"}, "geometry": {"type": "Point", "coordinates": [77.57145, 12.89768]}}, {"type": "Feature", "properties": {"name": "Jayanagara  38th Cross"}, "geometry": {"type": "Point", "coordinates": [77.58376, 12.92101]}}, {"type": "Feature", "properties": {"name": "Sharadanagara"}, "geometry": {"type": "Point", "coordinates": [77.5595, 12.8925]}}, {"type": "Feature", "properties": {"name": "Raghuvanahalli Cross"}, "geometry": {"type": "Point", "coordinates": [77.54621, 12.88067]}}, {"type": "Feature", "properties": {"name": "Avalahalli"}, "geometry": {"type": "Point", "coordinates": [77.56657, 12.87276]}}, {"type": "Feature", "properties": {"name": "Vinayaka Talkies"}, "geometry": {"type": "Point", "coordinates": [77.57, 12.87478]}}, {"type": "Feature", "properties": {"name": "Nandi Garden Apartment"}, "geometry": {"type": "Point", "coordinates": [77.56905, 12.86816]}}, {"type": "Feature", "properties": {"name": "Vajragiri Estate"}, "geometry": {"type": "Point", "coordinates": [77.55657, 12.85767]}}]}