{"type": "FeatureCollection", "features": [{"type": "Feature", "properties": {"name": "Military Accounts Office"}, "geometry": {"type": "Point", "coordinates": [77.62117, 12.96691]}}, {"type": "Feature", "properties": {"name": "Maniksha Parade Ground"}, "geometry": {"type": "Point", "coordinates": [77.60771, 12.97746]}}, {"type": "Feature", "properties": {"name": "Devis Road"}, "geometry": {"type": "Point", "coordinates": [77.61899, 13.00327]}}, {"type": "Feature", "properties": {"name": "Coles Road"}, "geometry": {"type": "Point", "coordinates": [77.61204, 12.99661]}}, {"type": "Feature", "properties": {"name": "Museum"}, "geometry": {"type": "Point", "coordinates": [77.59569, 12.97409]}}, {"type": "Feature", "properties": {"name": "Double Road Indiranagara"}, "geometry": {"type": "Point", "coordinates": [77.6366, 12.97832]}}, {"type": "Feature", "properties": {"name": "Philomenas Hospital"}, "geometry": {"type": "Point", "coordinates": [77.61011, 12.96508]}}, {"type": "Feature", "properties": {"name": "Bhagwan Mahaveer Jain Hospital"}, "geometry": {"type": "Point", "coordinates": [77.59596, 12.99059]}}, {"type": "Feature", "properties": {"name": "Depot-06 Gate"}, "geometry": {"type": "Point", "coordinates": [77.63463, 12.98246]}}, {"type": "Feature", "properties": {"name": "TV Tower"}, "geometry": {"type": "Point", "coordinates": [77.59078, 13.00978]}}, {"type": "Feature", "properties": {"name": "C Q A L"}, "geometry": {"type": "Point", "coordinates": [77.59331, 13.01175]}}, {"type": "Feature", "properties": {"name": "Canara Bank Tannery Road"}, "geometry": {"type": "Point", "coordinates": [77.61238, 13.00615]}}, {"type": "Feature", "properties": {"name": "Devis Road"}, "geometry": {"type": "Point", "coordinates": [77.61968, 13.00426]}}, {"type": "Feature", "properties": {"name": "Cantonment Railway Station"}, "geometry": {"type": "Point", "coordinates": [77.59711, 12.99475]}}, {"type": "Feature", "properties": {"name": "Frazer Town"}, "geometry": {"type": "Point", "coordinates": [77.61144, 13.00082]}}, {"type": "Feature", "properties": {"name": "MG Statue (Chinnaswamy Stadium)"}, "geometry": {"type": "Point", "coordinates": [77.59921, 12.97708]}}, {"type": "Feature", "properties": {"name": "Jayamahal"}, "geometry": {"type": "Point", "coordinates": [77.59448, 13.00189]}}, {"type": "Feature", "properties": {"name": "Johnson Market"}, "geometry": {"type": "Point", "coordinates": [77.60681, 12.96351]}}, {"type": "Feature", "properties": {"name": "Richmond Circle"}, "geometry": {"type": "Point", "coordinates": [77.5964, 12.96366]}}, {"type": "Feature", "properties": {"name": "TV Tower"}, "geometry": {"type": "Point", "coordinates": [77.59078, 13.00964]}}, {"type": "Feature", "properties": {"name": "Cubbon Park Metro Station"}, "geometry": {"type": "Point", "coordinates": [77.59835, 12.98068]}}, {"type": "Feature", "properties": {"name": "Indian Express"}, "geometry": {"type": "Point", "coordinates": [77.59735, 12.98421]}}, {"type": "Feature", "properties": {"name": "Military Accounts Office"}, "geometry": {"type": "Point", "coordinates": [77.62089, 12.96694]}}, {"type": "Feature", "properties": {"name": "Lido Talkies"}, "geometry": {"type": "Point", "coordinates": [77.62074, 12.97277]}}, {"type": "Feature", "properties": {"name": "Shanthinagara KH Road"}, "geometry": {"type": "Point", "coordinates": [77.59193, 12.95501]}}, {"type": "Feature", "properties": {"name": "JC Nagara"}, "geometry": {"type": "Point", "coordinates": [77.59394, 13.00508]}}, {"type": "Feature", "properties": {"name": "Rahamathnagara"}, "geometry": {"type": "Point", "coordinates": [77.5919, 13.01755]}}, {"type": "Feature", "properties": {"name": "Water Tank Chamarajapet"}, "geometry": {"type": "Point", "coordinates": [77.56493, 12.96038]}}, {"type": "Feature", "properties": {"name": "Mekhri Circle"}, "geometry": {"type": "Point", "coordinates": [77.58502, 13.01458]}}, {"type": "Feature", "properties": {"name": "Nandidurga Road"}, "geometry": {"type": "Point", "coordinates": [77.59959, 13.00075]}}, {"type": "Feature", "properties": {"name": "Lalbagh Main Gate"}, "geometry": {"type": "Point", "coordinates": [77.58336, 12.95251]}}, {"type": "Feature", "properties": {"name": "Chinnaswamy Stadium"}, "geometry": {"type": "Point", "coordinates": [77.59885, 12.97742]}}, {"type": "Feature", "properties": {"name": "Mount Carmel College"}, "geometry": {"type": "Point", "coordinates": [77.58893, 12.99315]}}, {"type": "Feature", "properties": {"name": "Kempegowda Bus Station"}, "geometry": {"type": "Point", "coordinates": [77.57327, 12.97749]}}, {"type": "Feature", "properties": {"name": "Jayamahal Extension"}, "geometry": {"type": "Point", "coordinates": [77.59873, 13.00206]}}, {"type": "Feature", "properties": {"name": "KH Road"}, "geometry": {"type": "Point", "coordinates": [77.59286, 12.95759]}}, {"type": "Feature", "properties": {"name": "Ravi Tent"}, "geometry": {"type": "Point", "coordinates": [77.62148, 12.95169]}}, {"type": "Feature", "properties": {"name": "Town Hall"}, "geometry": {"type": "Point", "coordinates": [77.58375, 12.96355]}}, {"type": "Feature", "properties": {"name": "Rayan Circle"}, "geometry": {"type": "Point", "coordinates": [77.5679, 12.96047]}}, {"type": "Feature", "properties": {"name": "Doddy"}, "geometry": {"type": "Point", "coordinates": [77.61215, 13.00266]}}, {"type": "Feature", "properties": {"name": "YMC Nandhidurga Road"}, "geometry": {"type": "Point", "coordinates": [77.60181, 12.99585]}}, {"type": "Feature", "properties": {"name": "Munireddy Palya J C Nagara"}, "geometry": {"type": "Point", "coordinates": [77.59359, 13.00413]}}, {"type": "Feature", "properties": {"name": "Coles Park"}, "geometry": {"type": "Point", "coordinates": [77.60829, 12.99534]}}, {"type": "Feature", "properties": {"name": "Cubbon Park Metro Station"}, "geometry": {"type": "Point", "coordinates": [77.59831, 12.98068]}}, {"type": "Feature", "properties": {"name": "MG Statue (Chinnaswamy Stadium)"}, "geometry": {"type": "Point", "coordinates": [77.60016, 12.97677]}}, {"type": "Feature", "properties": {"name": "MG Statue (Chinnaswamy Stadium)"}, "geometry": {"type": "Point", "coordinates": [77.59999, 12.97654]}}, {"type": "Feature", "properties": {"name": "MS Building"}, "geometry": {"type": "Point", "coordinates": [77.58922, 12.97677]}}, {"type": "Feature", "properties": {"name": "Vidhana Soudha Karnataka High Court"}, "geometry": {"type": "Point", "coordinates": [77.59296, 12.9802]}}, {"type": "Feature", "properties": {"name": "GPO"}, "geometry": {"type": "Point", "coordinates": [77.59436, 12.98137]}}, {"type": "Feature", "properties": {"name": "Raj Bhavan"}, "geometry": {"type": "Point", "coordinates": [77.59206, 12.98307]}}, {"type": "Feature", "properties": {"name": "CSI Hospital"}, "geometry": {"type": "Point", "coordinates": [77.59938, 12.98983]}}, {"type": "Feature", "properties": {"name": "Raj Bhavan"}, "geometry": {"type": "Point", "coordinates": [77.59287, 12.98437]}}, {"type": "Feature", "properties": {"name": "Periyar Nagara Circle"}, "geometry": {"type": "Point", "coordinates": [77.61328, 13.00853]}}, {"type": "Feature", "properties": {"name": "Life Style (Sacred Heart School)"}, "geometry": {"type": "Point", "coordinates": [77.61018, 12.96692]}}, {"type": "Feature", "properties": {"name": "Kamaraja Road"}, "geometry": {"type": "Point", "coordinates": [77.61165, 12.98424]}}, {"type": "Feature", "properties": {"name": "MG Road Metro Station"}, "geometry": {"type": "Point", "coordinates": [77.60671, 12.97547]}}, {"type": "Feature", "properties": {"name": "Charls School Toll Gate"}, "geometry": {"type": "Point", "coordinates": [77.62084, 13.00616]}}, {"type": "Feature", "properties": {"name": "Coles Park"}, "geometry": {"type": "Point", "coordinates": [77.60927, 12.99301]}}, {"type": "Feature", "properties": {"name": "East Railway Station"}, "geometry": {"type": "Point", "coordinates": [77.61865, 13.00143]}}, {"type": "Feature", "properties": {"name": "Indian Express"}, "geometry": {"type": "Point", "coordinates": [77.59827, 12.98408]}}, {"type": "Feature", "properties": {"name": "Jayamahal Extension1"}, "geometry": {"type": "Point", "coordinates": [77.59877, 13.00199]}}, {"type": "Feature", "properties": {"name": "Mallige Hospital"}, "geometry": {"type": "Point", "coordinates": [77.59203, 12.94787]}}, {"type": "Feature", "properties": {"name": "Indian Express"}, "geometry": {"type": "Point", "coordinates": [77.59646, 12.98362]}}, {"type": "Feature", "properties": {"name": "Cauvery Bhavana"}, "geometry": {"type": "Point", "coordinates": [77.58157, 12.97372]}}, {"type": "Feature", "properties": {"name": "Shoolay Circle Brigade Road"}, "geometry": {"type": "Point", "coordinates": [77.60687, 12.96584]}}, {"type": "Feature", "properties": {"name": "GPO"}, "geometry": {"type": "Point", "coordinates": [77.59405, 12.98137]}}, {"type": "Feature", "properties": {"name": "Corporation"}, "geometry": {"type": "Point", "coordinates": [77.58675, 12.96839]}}, {"type": "Feature", "properties": {"name": "Charls School Toll Gate"}, "geometry": {"type": "Point", "coordinates": [77.62099, 13.00616]}}, {"type": "Feature", "properties": {"name": "Mosque Road"}, "geometry": {"type": "Point", "coordinates": [77.61609, 13.00032]}}, {"type": "Feature", "properties": {"name": "Neelasandra Rose Garden"}, "geometry": {"type": "Point", "coordinates": [77.61737, 12.95379]}}, {"type": "Feature", "properties": {"name": "Maharani College"}, "geometry": {"type": "Point", "coordinates": [77.5858, 12.97703]}}, {"type": "Feature", "properties": {"name": "Vivek Nagara"}, "geometry": {"type": "Point", "coordinates": [77.62302, 12.95443]}}, {"type": "Feature", "properties": {"name": "Matadahalli"}, "geometry": {"type": "Point", "coordinates": [77.59362, 13.01364]}}, {"type": "Feature", "properties": {"name": "St Johns School Thamos Cafe"}, "geometry": {"type": "Point", "coordinates": [77.61155, 12.99165]}}, {"type": "Feature", "properties": {"name": "Bamboo Bazaar"}, "geometry": {"type": "Point", "coordinates": [77.60332, 12.99192]}}, {"type": "Feature", "properties": {"name": "Munireddy Palya J C Nagara"}, "geometry": {"type": "Point", "coordinates": [77.59276, 13.00676]}}, {"type": "Feature", "properties": {"name": "Shivajinagara Bus Station"}, "geometry": {"type": "Point", "coordinates": [77.60323, 12.98396]}}, {"type": "Feature", "properties": {"name": "Gurudwara"}, "geometry": {"type": "Point", "coordinates": [77.62001, 12.97604]}}, {"type": "Feature", "properties": {"name": "State Bank India Garage"}, "geometry": {"type": "Point", "coordinates": [77.6015, 12.97435]}}, {"type": "Feature", "properties": {"name": "KR Market"}, "geometry": {"type": "Point", "coordinates": [77.57736, 12.96437]}}, {"type": "Feature", "properties": {"name": "Wilson Garden Police Station"}, "geometry": {"type": "Point", "coordinates": [77.5951, 12.95141]}}, {"type": "Feature", "properties": {"name": "Ganesha Temple Vasanthanagara"}, "geometry": {"type": "Point", "coordinates": [77.59216, 12.99516]}}, {"type": "Feature", "properties": {"name": "MG Road Metro Station"}, "geometry": {"type": "Point", "coordinates": [77.60644, 12.97541]}}, {"type": "Feature", "properties": {"name": "Canara Bank Millers Road"}, "geometry": {"type": "Point", "coordinates": [77.60169, 12.99549]}}, {"type": "Feature", "properties": {"name": "Kempegowda Bus Station"}, "geometry": {"type": "Point", "coordinates": [77.57141, 12.97751]}}, {"type": "Feature", "properties": {"name": "Jayamahal"}, "geometry": {"type": "Point", "coordinates": [77.59478, 13.00034]}}, {"type": "Feature", "properties": {"name": "Lakkasandra"}, "geometry": {"type": "Point", "coordinates": [77.59735, 12.94318]}}, {"type": "Feature", "properties": {"name": "Halasuru Police Station"}, "geometry": {"type": "Point", "coordinates": [77.62544, 12.97516]}}, {"type": "Feature", "properties": {"name": "Mosque Road"}, "geometry": {"type": "Point", "coordinates": [77.61578, 13.00067]}}, {"type": "Feature", "properties": {"name": "Depot-06 Gate"}, "geometry": {"type": "Point", "coordinates": [77.63503, 12.98262]}}, {"type": "Feature", "properties": {"name": "Lingarajapura Bridge"}, "geometry": {"type": "Point", "coordinates": [77.6232, 13.00906]}}, {"type": "Feature", "properties": {"name": "Cantonment Railway Station"}, "geometry": {"type": "Point", "coordinates": [77.59712, 12.99384]}}, {"type": "Feature", "properties": {"name": "Frazer Town"}, "geometry": {"type": "Point", "coordinates": [77.61257, 13.00098]}}, {"type": "Feature", "properties": {"name": "Mekhri Circle"}, "geometry": {"type": "Point", "coordinates": [77.58263, 13.01451]}}, {"type": "Feature", "properties": {"name": "Indian Express"}, "geometry": {"type": "Point", "coordinates": [77.5974, 12.98393]}}, {"type": "Feature", "properties": {"name": "Coles Park"}, "geometry": {"type": "Point", "coordinates": [77.60668, 12.99573]}}, {"type": "Feature", "properties": {"name": "ASC Centre"}, "geometry": {"type": "Point", "coordinates": [77.61906, 12.96245]}}, {"type": "Feature", "properties": {"name": "Neelasandra Bus Stand"}, "geometry": {"type": "Point", "coordinates": [77.61444, 12.95746]}}, {"type": "Feature", "properties": {"name": "ITC Factory"}, "geometry": {"type": "Point", "coordinates": [77.62324, 12.99821]}}, {"type": "Feature", "properties": {"name": "KR Circle"}, "geometry": {"type": "Point", "coordinates": [77.58661, 12.97386]}}, {"type": "Feature", "properties": {"name": "D Souza Circle"}, "geometry": {"type": "Point", "coordinates": [77.61106, 12.96755]}}, {"type": "Feature", "properties": {"name": "Richmond Circle"}, "geometry": {"type": "Point", "coordinates": [77.59946, 12.96738]}}, {"type": "Feature", "properties": {"name": "Sophiya School (KIA)"}, "geometry": {"type": "Point", "coordinates": [77.58971, 12.98586]}}, {"type": "Feature", "properties": {"name": "Museum"}, "geometry": {"type": "Point", "coordinates": [77.59585, 12.97397]}}, {"type": "Feature", "properties": {"name": "Indian Express"}, "geometry": {"type": "Point", "coordinates": [77.59645, 12.98387]}}, {"type": "Feature", "properties": {"name": "KR Market"}, "geometry": {"type": "Point", "coordinates": [77.5768, 12.96406]}}, {"type": "Feature", "properties": {"name": "C\u200c Q A L"}, "geometry": {"type": "Point", "coordinates": [77.59326, 13.01178]}}, {"type": "Feature", "properties": {"name": "Trinity Circle"}, "geometry": {"type": "Point", "coordinates": [77.6197, 12.97093]}}, {"type": "Feature", "properties": {"name": "Coles Road"}, "geometry": {"type": "Point", "coordinates": [77.61247, 12.99632]}}, {"type": "Feature", "properties": {"name": "ITC Factory"}, "geometry": {"type": "Point", "coordinates": [77.62211, 12.9986]}}, {"type": "Feature", "properties": {"name": "Maharani College"}, "geometry": {"type": "Point", "coordinates": [77.58567, 12.97697]}}, {"type": "Feature", "properties": {"name": "Periyar Nagara Circle"}, "geometry": {"type": "Point", "coordinates": [77.6132, 13.00849]}}, {"type": "Feature", "properties": {"name": "KR Market"}, "geometry": {"type": "Point", "coordinates": [77.57668, 12.96451]}}, {"type": "Feature", "properties": {"name": "BRV Talkies Cubbon Road"}, "geometry": {"type": "Point", "coordinates": [77.60223, 12.97941]}}, {"type": "Feature", "properties": {"name": "Sophiya School"}, "geometry": {"type": "Point", "coordinates": [77.58864, 12.98609]}}, {"type": "Feature", "properties": {"name": "MG Road"}, "geometry": {"type": "Point", "coordinates": [77.60204, 12.97779]}}, {"type": "Feature", "properties": {"name": "Mosque Road"}, "geometry": {"type": "Point", "coordinates": [77.61598, 13.00037]}}, {"type": "Feature", "properties": {"name": "Vinayaka Talkies"}, "geometry": {"type": "Point", "coordinates": [77.56779, 12.96333]}}, {"type": "Feature", "properties": {"name": "Austin Town Neelasandra"}, "geometry": {"type": "Point", "coordinates": [77.61254, 12.9616]}}, {"type": "Feature", "properties": {"name": "Cunningham Road"}, "geometry": {"type": "Point", "coordinates": [77.59427, 12.98787]}}, {"type": "Feature", "properties": {"name": "Mysore Bank"}, "geometry": {"type": "Point", "coordinates": [77.58199, 12.97253]}}, {"type": "Feature", "properties": {"name": "Lingarajapura Bridge"}, "geometry": {"type": "Point", "coordinates": [77.62331, 13.00906]}}, {"type": "Feature", "properties": {"name": "Vinayaka Talkies"}, "geometry": {"type": "Point", "coordinates": [77.56838, 12.96381]}}, {"type": "Feature", "properties": {"name": "Matadahalli"}, "geometry": {"type": "Point", "coordinates": [77.59365, 13.01366]}}, {"type": "Feature", "properties": {"name": "Frazer Town"}, "geometry": {"type": "Point", "coordinates": [77.61196, 13.00115]}}, {"type": "Feature", "properties": {"name": "Indian Express"}, "geometry": {"type": "Point", "coordinates": [77.59716, 12.98402]}}, {"type": "Feature", "properties": {"name": "Jai Bharath Nagara"}, "geometry": {"type": "Point", "coordinates": [77.63032, 13.00156]}}, {"type": "Feature", "properties": {"name": "Pothalappa Garden"}, "geometry": {"type": "Point", "coordinates": [77.60597, 12.9498]}}, {"type": "Feature", "properties": {"name": "RM Guttahalli"}, "geometry": {"type": "Point", "coordinates": [77.58425, 13.00009]}}, {"type": "Feature", "properties": {"name": "Elgin Floor Mill"}, "geometry": {"type": "Point", "coordinates": [77.60612, 12.95814]}}, {"type": "Feature", "properties": {"name": "Telephone Exchange AGO/VSD"}, "geometry": {"type": "Point", "coordinates": [77.58852, 12.98225]}}, {"type": "Feature", "properties": {"name": "KH Road"}, "geometry": {"type": "Point", "coordinates": [77.59299, 12.95815]}}, {"type": "Feature", "properties": {"name": "Canara Bank Tannery Road"}, "geometry": {"type": "Point", "coordinates": [77.61245, 13.00625]}}, {"type": "Feature", "properties": {"name": "Shivajinagara Bus Station"}, "geometry": {"type": "Point", "coordinates": [77.60304, 12.98328]}}, {"type": "Feature", "properties": {"name": "Postal and Telecom Colony"}, "geometry": {"type": "Point", "coordinates": [77.61602, 13.01193]}}, {"type": "Feature", "properties": {"name": "Vannarapet"}, "geometry": {"type": "Point", "coordinates": [77.62115, 12.95647]}}, {"type": "Feature", "properties": {"name": "Halasuru"}, "geometry": {"type": "Point", "coordinates": [77.62956, 12.97968]}}, {"type": "Feature", "properties": {"name": "Corporation"}, "geometry": {"type": "Point", "coordinates": [77.58822, 12.96701]}}, {"type": "Feature", "properties": {"name": "Russell Market"}, "geometry": {"type": "Point", "coordinates": [77.60518, 12.98486]}}, {"type": "Feature", "properties": {"name": "Bamboo Bazaar"}, "geometry": {"type": "Point", "coordinates": [77.60402, 12.99208]}}, {"type": "Feature", "properties": {"name": "Philips Millenium Halasuru"}, "geometry": {"type": "Point", "coordinates": [77.62443, 12.98196]}}, {"type": "Feature", "properties": {"name": "Nandidurga Road"}, "geometry": {"type": "Point", "coordinates": [77.5996, 13.00056]}}, {"type": "Feature", "properties": {"name": "KR Market"}, "geometry": {"type": "Point", "coordinates": [77.57897, 12.9641]}}, {"type": "Feature", "properties": {"name": "Halasuru"}, "geometry": {"type": "Point", "coordinates": [77.62922, 12.97849]}}, {"type": "Feature", "properties": {"name": "YMC Nandhidurga Road"}, "geometry": {"type": "Point", "coordinates": [77.60178, 12.99596]}}, {"type": "Feature", "properties": {"name": "Cubbon Park Metro Station"}, "geometry": {"type": "Point", "coordinates": [77.59722, 12.98083]}}, {"type": "Feature", "properties": {"name": "Rahamathnagara"}, "geometry": {"type": "Point", "coordinates": [77.59186, 13.01751]}}, {"type": "Feature", "properties": {"name": "Postal and Telecom Colony"}, "geometry": {"type": "Point", "coordinates": [77.61614, 13.01201]}}, {"type": "Feature", "properties": {"name": "St Joseph Boys High School Musuem Road"}, "geometry": {"type": "Point", "coordinates": [77.6044, 12.97193]}}, {"type": "Feature", "properties": {"name": "Shanthinagara Bus Station"}, "geometry": {"type": "Point", "coordinates": [77.59235, 12.95483]}}, {"type": "Feature", "properties": {"name": "Okalipura"}, "geometry": {"type": "Point", "coordinates": [77.56783, 12.98229]}}, {"type": "Feature", "properties": {"name": "GPO"}, "geometry": {"type": "Point", "coordinates": [77.5951, 12.98173]}}, {"type": "Feature", "properties": {"name": "Palace Ground"}, "geometry": {"type": "Point", "coordinates": [77.58378, 13.01057]}}, {"type": "Feature", "properties": {"name": "Mayohall G-2"}, "geometry": {"type": "Point", "coordinates": [77.61119, 12.97395]}}, {"type": "Feature", "properties": {"name": "Sujatha Talkies"}, "geometry": {"type": "Point", "coordinates": [77.56208, 12.98246]}}, {"type": "Feature", "properties": {"name": "KR Circle"}, "geometry": {"type": "Point", "coordinates": [77.5864, 12.97555]}}, {"type": "Feature", "properties": {"name": "Siddapura Ashoka Pillar"}, "geometry": {"type": "Point", "coordinates": [77.58879, 12.94621]}}, {"type": "Feature", "properties": {"name": "Lalbagh West Gate"}, "geometry": {"type": "Point", "coordinates": [77.57918, 12.94826]}}, {"type": "Feature", "properties": {"name": "Manipal Centre"}, "geometry": {"type": "Point", "coordinates": [77.61436, 12.97493]}}, {"type": "Feature", "properties": {"name": "Anepalya"}, "geometry": {"type": "Point", "coordinates": [77.60532, 12.95289]}}, {"type": "Feature", "properties": {"name": "Clarence School"}, "geometry": {"type": "Point", "coordinates": [77.61666, 13.00309]}}, {"type": "Feature", "properties": {"name": "Lalbagh Hopcoms"}, "geometry": {"type": "Point", "coordinates": [77.59126, 12.95134]}}, {"type": "Feature", "properties": {"name": "Maniksha Parade Ground"}, "geometry": {"type": "Point", "coordinates": [77.60747, 12.97773]}}, {"type": "Feature", "properties": {"name": "Manipal Centre MG Road"}, "geometry": {"type": "Point", "coordinates": [77.61356, 12.97552]}}, {"type": "Feature", "properties": {"name": "Manipal Centre MG Road"}, "geometry": {"type": "Point", "coordinates": [77.61358, 12.97571]}}, {"type": "Feature", "properties": {"name": "Bishop Coton Girls High School"}, "geometry": {"type": "Point", "coordinates": [77.6014, 12.96889]}}, {"type": "Feature", "properties": {"name": "Lakshmipura"}, "geometry": {"type": "Point", "coordinates": [77.63218, 12.97827]}}, {"type": "Feature", "properties": {"name": "Corporation"}, "geometry": {"type": "Point", "coordinates": [77.5893, 12.96815]}}, {"type": "Feature", "properties": {"name": "Maharani College"}, "geometry": {"type": "Point", "coordinates": [77.5849, 12.97903]}}, {"type": "Feature", "properties": {"name": "Seventh Day School (Coles Park)"}, "geometry": {"type": "Point", "coordinates": [77.61107, 12.9956]}}, {"type": "Feature", "properties": {"name": "Garuda Mall"}, "geometry": {"type": "Point", "coordinates": [77.61042, 12.96969]}}, {"type": "Feature", "properties": {"name": "Commercial Street"}, "geometry": {"type": "Point", "coordinates": [77.60968, 12.97985]}}, {"type": "Feature", "properties": {"name": "St Joseph's Indian School/ Malya Hospital"}, "geometry": {"type": "Point", "coordinates": [77.5943, 12.97052]}}, {"type": "Feature", "properties": {"name": "Shanthinagara Bus Station"}, "geometry": {"type": "Point", "coordinates": [77.59258, 12.95449]}}, {"type": "Feature", "properties": {"name": "Wilson Garden 12th Cross"}, "geometry": {"type": "Point", "coordinates": [77.59794, 12.94725]}}, {"type": "Feature", "properties": {"name": "Vasantha Nagara"}, "geometry": {"type": "Point", "coordinates": [77.59503, 12.99278]}}, {"type": "Feature", "properties": {"name": "Doddy"}, "geometry": {"type": "Point", "coordinates": [77.61213, 13.0026]}}, {"type": "Feature", "properties": {"name": "Commando Hospital"}, "geometry": {"type": "Point", "coordinates": [77.62641, 12.96364]}}, {"type": "Feature", "properties": {"name": "Muslim Colony"}, "geometry": {"type": "Point", "coordinates": [77.61541, 13.01085]}}, {"type": "Feature", "properties": {"name": "RM Guttahalli"}, "geometry": {"type": "Point", "coordinates": [77.58392, 12.99977]}}, {"type": "Feature", "properties": {"name": "Vidhana Soudha Karnataka High Court"}, "geometry": {"type": "Point", "coordinates": [77.59135, 12.97821]}}, {"type": "Feature", "properties": {"name": "St Marthas Hospital"}, "geometry": {"type": "Point", "coordinates": [77.58716, 12.96945]}}, {"type": "Feature", "properties": {"name": "Shivajinagara Bus Station"}, "geometry": {"type": "Point", "coordinates": [77.60341, 12.98328]}}, {"type": "Feature", "properties": {"name": "Muslim Colony"}, "geometry": {"type": "Point", "coordinates": [77.61505, 13.01045]}}, {"type": "Feature", "properties": {"name": "Austin Town"}, "geometry": {"type": "Point", "coordinates": [77.61344, 12.96156]}}, {"type": "Feature", "properties": {"name": "Canara Bank Millers Road"}, "geometry": {"type": "Point", "coordinates": [77.60172, 12.99556]}}, {"type": "Feature", "properties": {"name": "Town Hall"}, "geometry": {"type": "Point", "coordinates": [77.58434, 12.96384]}}]}