{"type": "FeatureCollection", "features": [{"type": "Feature", "properties": {"name": "Sirsi Circle"}, "geometry": {"type": "Point", "coordinates": [77.55995, 12.96223]}}, {"type": "Feature", "properties": {"name": "Museum"}, "geometry": {"type": "Point", "coordinates": [77.59585, 12.97397]}}, {"type": "Feature", "properties": {"name": "Museum"}, "geometry": {"type": "Point", "coordinates": [77.59569, 12.97409]}}, {"type": "Feature", "properties": {"name": "Ramakrishna Ashrama"}, "geometry": {"type": "Point", "coordinates": [77.56783, 12.94715]}}, {"type": "Feature", "properties": {"name": "Sirsi Circle"}, "geometry": {"type": "Point", "coordinates": [77.55921, 12.96022]}}, {"type": "Feature", "properties": {"name": "KR Market"}, "geometry": {"type": "Point", "coordinates": [77.5768, 12.96406]}}, {"type": "Feature", "properties": {"name": "Sirsi Circle"}, "geometry": {"type": "Point", "coordinates": [77.55686, 12.96038]}}, {"type": "Feature", "properties": {"name": "CR Police Ground"}, "geometry": {"type": "Point", "coordinates": [77.5601, 12.96258]}}, {"type": "Feature", "properties": {"name": "Vidhana Soudha"}, "geometry": {"type": "Point", "coordinates": [77.58853, 12.98104]}}, {"type": "Feature", "properties": {"name": "Indian Express"}, "geometry": {"type": "Point", "coordinates": [77.59827, 12.98408]}}, {"type": "Feature", "properties": {"name": "Subbaiah Circle"}, "geometry": {"type": "Point", "coordinates": [77.59093, 12.96266]}}, {"type": "Feature", "properties": {"name": "KR Market"}, "geometry": {"type": "Point", "coordinates": [77.57668, 12.96451]}}, {"type": "Feature", "properties": {"name": "KR Market Flyover"}, "geometry": {"type": "Point", "coordinates": [77.57512, 12.96469]}}, {"type": "Feature", "properties": {"name": "MG Road"}, "geometry": {"type": "Point", "coordinates": [77.60204, 12.97779]}}, {"type": "Feature", "properties": {"name": "Indian Express"}, "geometry": {"type": "Point", "coordinates": [77.59646, 12.98362]}}, {"type": "Feature", "properties": {"name": "Vinayaka Talkies"}, "geometry": {"type": "Point", "coordinates": [77.56779, 12.96333]}}, {"type": "Feature", "properties": {"name": "Apex Bank"}, "geometry": {"type": "Point", "coordinates": [77.55602, 12.94177]}}, {"type": "Feature", "properties": {"name": "Srinagara Bus Station"}, "geometry": {"type": "Point", "coordinates": [77.55479, 12.94425]}}, {"type": "Feature", "properties": {"name": "MG Statue (Chinnaswamy Stadium)"}, "geometry": {"type": "Point", "coordinates": [77.59921, 12.97708]}}, {"type": "Feature", "properties": {"name": "Mysore Bank"}, "geometry": {"type": "Point", "coordinates": [77.58199, 12.97253]}}, {"type": "Feature", "properties": {"name": "Cunningham Road"}, "geometry": {"type": "Point", "coordinates": [77.59427, 12.98787]}}, {"type": "Feature", "properties": {"name": "Vinayaka Talkies"}, "geometry": {"type": "Point", "coordinates": [77.56838, 12.96381]}}, {"type": "Feature", "properties": {"name": "Corporation"}, "geometry": {"type": "Point", "coordinates": [77.58675, 12.96839]}}, {"type": "Feature", "properties": {"name": "Hanumanthanagara Ward Office"}, "geometry": {"type": "Point", "coordinates": [77.56602, 12.94339]}}, {"type": "Feature", "properties": {"name": "Corporation"}, "geometry": {"type": "Point", "coordinates": [77.58778, 12.9648]}}, {"type": "Feature", "properties": {"name": "Maharani College"}, "geometry": {"type": "Point", "coordinates": [77.5858, 12.97703]}}, {"type": "Feature", "properties": {"name": "Bapujinagara"}, "geometry": {"type": "Point", "coordinates": [77.54182, 12.95321]}}, {"type": "Feature", "properties": {"name": "Maramma Temple"}, "geometry": {"type": "Point", "coordinates": [77.55872, 12.96291]}}, {"type": "Feature", "properties": {"name": "Mysore Road TollGate"}, "geometry": {"type": "Point", "coordinates": [77.55178, 12.95738]}}, {"type": "Feature", "properties": {"name": "Corporation"}, "geometry": {"type": "Point", "coordinates": [77.5893, 12.96815]}}, {"type": "Feature", "properties": {"name": "KH Road"}, "geometry": {"type": "Point", "coordinates": [77.59299, 12.95815]}}, {"type": "Feature", "properties": {"name": "Bamboo Bazaar"}, "geometry": {"type": "Point", "coordinates": [77.60332, 12.99192]}}, {"type": "Feature", "properties": {"name": "Subramanya Swamy Temple"}, "geometry": {"type": "Point", "coordinates": [77.562, 12.94171]}}, {"type": "Feature", "properties": {"name": "Maharani College"}, "geometry": {"type": "Point", "coordinates": [77.5849, 12.97903]}}, {"type": "Feature", "properties": {"name": "Shivajinagara Bus Station"}, "geometry": {"type": "Point", "coordinates": [77.60323, 12.98396]}}, {"type": "Feature", "properties": {"name": "Indian Express"}, "geometry": {"type": "Point", "coordinates": [77.59735, 12.98421]}}, {"type": "Feature", "properties": {"name": "St Joseph's Indian School/ Malya Hospital"}, "geometry": {"type": "Point", "coordinates": [77.5943, 12.97052]}}, {"type": "Feature", "properties": {"name": "Shanthinagara Bus Station"}, "geometry": {"type": "Point", "coordinates": [77.59258, 12.95449]}}, {"type": "Feature", "properties": {"name": "Water Tank Chamarajapet"}, "geometry": {"type": "Point", "coordinates": [77.56493, 12.96038]}}, {"type": "Feature", "properties": {"name": "Rayan Circle"}, "geometry": {"type": "Point", "coordinates": [77.56889, 12.96136]}}, {"type": "Feature", "properties": {"name": "Corporation"}, "geometry": {"type": "Point", "coordinates": [77.58822, 12.96701]}}, {"type": "Feature", "properties": {"name": "KR Market Flyover"}, "geometry": {"type": "Point", "coordinates": [77.57508, 12.96474]}}, {"type": "Feature", "properties": {"name": "Bamboo Bazaar"}, "geometry": {"type": "Point", "coordinates": [77.60402, 12.99208]}}, {"type": "Feature", "properties": {"name": "Cauvery Bhavana"}, "geometry": {"type": "Point", "coordinates": [77.58183, 12.97438]}}, {"type": "Feature", "properties": {"name": "Kempegowda Bus Station"}, "geometry": {"type": "Point", "coordinates": [77.57327, 12.97749]}}, {"type": "Feature", "properties": {"name": "Chamarajapet"}, "geometry": {"type": "Point", "coordinates": [77.56736, 12.95764]}}, {"type": "Feature", "properties": {"name": "Maramma Temple"}, "geometry": {"type": "Point", "coordinates": [77.55906, 12.96314]}}, {"type": "Feature", "properties": {"name": "New Guddadahalli"}, "geometry": {"type": "Point", "coordinates": [77.54761, 12.95641]}}, {"type": "Feature", "properties": {"name": "KH Road"}, "geometry": {"type": "Point", "coordinates": [77.59286, 12.95759]}}, {"type": "Feature", "properties": {"name": "Bengaluru High School"}, "geometry": {"type": "Point", "coordinates": [77.56762, 12.95325]}}, {"type": "Feature", "properties": {"name": "Nirmala Store"}, "geometry": {"type": "Point", "coordinates": [77.55957, 12.94162]}}, {"type": "Feature", "properties": {"name": "Town Hall"}, "geometry": {"type": "Point", "coordinates": [77.58375, 12.96355]}}, {"type": "Feature", "properties": {"name": "Rayan Circle"}, "geometry": {"type": "Point", "coordinates": [77.5679, 12.96047]}}, {"type": "Feature", "properties": {"name": "Chamarajapet"}, "geometry": {"type": "Point", "coordinates": [77.56255, 12.96033]}}, {"type": "Feature", "properties": {"name": "Jagajeevanram Nagara"}, "geometry": {"type": "Point", "coordinates": [77.55486, 12.96461]}}, {"type": "Feature", "properties": {"name": "New Guddadahalli"}, "geometry": {"type": "Point", "coordinates": [77.54596, 12.95587]}}, {"type": "Feature", "properties": {"name": "Vidhana Soudha Karnataka High Court"}, "geometry": {"type": "Point", "coordinates": [77.59135, 12.97821]}}, {"type": "Feature", "properties": {"name": "St Marthas Hospital"}, "geometry": {"type": "Point", "coordinates": [77.58716, 12.96945]}}, {"type": "Feature", "properties": {"name": "MG Statue (Chinnaswamy Stadium)"}, "geometry": {"type": "Point", "coordinates": [77.60016, 12.97677]}}, {"type": "Feature", "properties": {"name": "Cantonment Railway Station"}, "geometry": {"type": "Point", "coordinates": [77.59712, 12.99384]}}, {"type": "Feature", "properties": {"name": "MS Building"}, "geometry": {"type": "Point", "coordinates": [77.58922, 12.97677]}}, {"type": "Feature", "properties": {"name": "Vidhana Soudha Karnataka High Court"}, "geometry": {"type": "Point", "coordinates": [77.59296, 12.9802]}}, {"type": "Feature", "properties": {"name": "Shanthinagara Bus Station"}, "geometry": {"type": "Point", "coordinates": [77.59235, 12.95483]}}, {"type": "Feature", "properties": {"name": "Mysore Road TollGate"}, "geometry": {"type": "Point", "coordinates": [77.55319, 12.95768]}}, {"type": "Feature", "properties": {"name": "Indian Express"}, "geometry": {"type": "Point", "coordinates": [77.5974, 12.98393]}}, {"type": "Feature", "properties": {"name": "CSI Hospital"}, "geometry": {"type": "Point", "coordinates": [77.59938, 12.98983]}}, {"type": "Feature", "properties": {"name": "KR Circle"}, "geometry": {"type": "Point", "coordinates": [77.58661, 12.97386]}}, {"type": "Feature", "properties": {"name": "Goripalya"}, "geometry": {"type": "Point", "coordinates": [77.55783, 12.96355]}}, {"type": "Feature", "properties": {"name": "Town Hall 1"}, "geometry": {"type": "Point", "coordinates": [77.58404, 12.96409]}}, {"type": "Feature", "properties": {"name": "Mysore Road Bus Station"}, "geometry": {"type": "Point", "coordinates": [77.54374, 12.95357]}}, {"type": "Feature", "properties": {"name": "Town Hall"}, "geometry": {"type": "Point", "coordinates": [77.58434, 12.96384]}}]}