{"type": "FeatureCollection", "features": [{"type": "Feature", "properties": {"name": "Kumbalagodu"}, "geometry": {"type": "Point", "coordinates": [77.44539, 12.87861]}}, {"type": "Feature", "properties": {"name": "MGM School"}, "geometry": {"type": "Point", "coordinates": [77.43273, 12.89757]}}, {"type": "Feature", "properties": {"name": "Kengeri Police Station"}, "geometry": {"type": "Point", "coordinates": [77.48146, 12.91007]}}, {"type": "Feature", "properties": {"name": "Anchepalya"}, "geometry": {"type": "Point", "coordinates": [77.45753, 12.8926]}}, {"type": "Feature", "properties": {"name": "RR Medical College"}, "geometry": {"type": "Point", "coordinates": [77.46058, 12.89633]}}, {"type": "Feature", "properties": {"name": "Pinto Bore"}, "geometry": {"type": "Point", "coordinates": [77.45046, 12.87077]}}, {"type": "Feature", "properties": {"name": "Gerupalya"}, "geometry": {"type": "Point", "coordinates": [77.44429, 12.88772]}}, {"type": "Feature", "properties": {"name": "Ashrama Ramohalli"}, "geometry": {"type": "Point", "coordinates": [77.42892, 12.90617]}}, {"type": "Feature", "properties": {"name": "St Bentic School"}, "geometry": {"type": "Point", "coordinates": [77.45876, 12.88709]}}, {"type": "Feature", "properties": {"name": "Kengeri Post Office"}, "geometry": {"type": "Point", "coordinates": [77.48182, 12.91536]}}, {"type": "Feature", "properties": {"name": "Juggath Pharma"}, "geometry": {"type": "Point", "coordinates": [77.45517, 12.89106]}}, {"type": "Feature", "properties": {"name": "Kommaghatta Junction"}, "geometry": {"type": "Point", "coordinates": [77.48141, 12.91431]}}, {"type": "Feature", "properties": {"name": "MGM School"}, "geometry": {"type": "Point", "coordinates": [77.43267, 12.89771]}}, {"type": "Feature", "properties": {"name": "Vinayakanagara Ramohalli"}, "geometry": {"type": "Point", "coordinates": [77.43017, 12.90301]}}, {"type": "Feature", "properties": {"name": "NICE Road Kengeri Road Junction"}, "geometry": {"type": "Point", "coordinates": [77.46944, 12.90277]}}, {"type": "Feature", "properties": {"name": "Ramohalli Cross"}, "geometry": {"type": "Point", "coordinates": [77.45112, 12.88701]}}, {"type": "Feature", "properties": {"name": "Kengeri Bus Station"}, "geometry": {"type": "Point", "coordinates": [77.4871, 12.91379]}}, {"type": "Feature", "properties": {"name": "RR Medical College"}, "geometry": {"type": "Point", "coordinates": [77.46084, 12.89618]}}, {"type": "Feature", "properties": {"name": "YMCA Public School"}, "geometry": {"type": "Point", "coordinates": [77.44832, 12.87351]}}, {"type": "Feature", "properties": {"name": "Pepsi Gate"}, "geometry": {"type": "Point", "coordinates": [77.4394, 12.87243]}}, {"type": "Feature", "properties": {"name": "Pepsi Gate"}, "geometry": {"type": "Point", "coordinates": [77.43943, 12.87197]}}, {"type": "Feature", "properties": {"name": "Depot-12 Gate"}, "geometry": {"type": "Point", "coordinates": [77.47068, 12.90481]}}, {"type": "Feature", "properties": {"name": "Kengeri Police Station"}, "geometry": {"type": "Point", "coordinates": [77.48206, 12.91044]}}, {"type": "Feature", "properties": {"name": "Basavanagara Kengeri"}, "geometry": {"type": "Point", "coordinates": [77.46733, 12.90106]}}, {"type": "Feature", "properties": {"name": "Depot-12 Gate"}, "geometry": {"type": "Point", "coordinates": [77.47084, 12.90471]}}, {"type": "Feature", "properties": {"name": "Subbarayappanapalya Cross"}, "geometry": {"type": "Point", "coordinates": [77.43769, 12.88926]}}, {"type": "Feature", "properties": {"name": "Devagere Cross"}, "geometry": {"type": "Point", "coordinates": [77.45713, 12.86428]}}, {"type": "Feature", "properties": {"name": "Bheemanakuppe Cross"}, "geometry": {"type": "Point", "coordinates": [77.43676, 12.89479]}}, {"type": "Feature", "properties": {"name": "Bheemanakuppe Cross"}, "geometry": {"type": "Point", "coordinates": [77.43682, 12.89465]}}, {"type": "Feature", "properties": {"name": "Thagachaguppe"}, "geometry": {"type": "Point", "coordinates": [77.45504, 12.86645]}}, {"type": "Feature", "properties": {"name": "Kengeri Railway Station"}, "geometry": {"type": "Point", "coordinates": [77.48235, 12.9168]}}, {"type": "Feature", "properties": {"name": "Vinayakanagara Ramohalli"}, "geometry": {"type": "Point", "coordinates": [77.43022, 12.90287]}}, {"type": "Feature", "properties": {"name": "Ashrama Ramohalli"}, "geometry": {"type": "Point", "coordinates": [77.42886, 12.9063]}}, {"type": "Feature", "properties": {"name": "NICE Road Kengeri Road Junction"}, "geometry": {"type": "Point", "coordinates": [77.46926, 12.90224]}}, {"type": "Feature", "properties": {"name": "Kengeri Satellite Town"}, "geometry": {"type": "Point", "coordinates": [77.48474, 12.92332]}}, {"type": "Feature", "properties": {"name": "Kumbalagodu"}, "geometry": {"type": "Point", "coordinates": [77.4455, 12.87826]}}, {"type": "Feature", "properties": {"name": "Mylasandra Cross"}, "geometry": {"type": "Point", "coordinates": [77.49039, 12.91751]}}, {"type": "Feature", "properties": {"name": "Kengeri Ganesha Temple"}, "geometry": {"type": "Point", "coordinates": [77.48029, 12.91126]}}, {"type": "Feature", "properties": {"name": "Anchepalya"}, "geometry": {"type": "Point", "coordinates": [77.45795, 12.89261]}}, {"type": "Feature", "properties": {"name": "Kengeri Bus Station"}, "geometry": {"type": "Point", "coordinates": [77.48645, 12.91406]}}, {"type": "Feature", "properties": {"name": "Mylasandra Cross"}, "geometry": {"type": "Point", "coordinates": [77.49064, 12.91749]}}, {"type": "Feature", "properties": {"name": "Depot-12 Kengeri"}, "geometry": {"type": "Point", "coordinates": [77.4727, 12.90424]}}, {"type": "Feature", "properties": {"name": "Basavanagara Kengeri"}, "geometry": {"type": "Point", "coordinates": [77.46736, 12.90096]}}, {"type": "Feature", "properties": {"name": "Subbarayappanapalya Cross"}, "geometry": {"type": "Point", "coordinates": [77.43763, 12.88939]}}, {"type": "Feature", "properties": {"name": "Juggath Farma"}, "geometry": {"type": "Point", "coordinates": [77.45532, 12.89081]}}, {"type": "Feature", "properties": {"name": "Ramohalli Cross"}, "geometry": {"type": "Point", "coordinates": [77.45125, 12.88674]}}]}