{"type": "FeatureCollection", "features": [{"type": "Feature", "properties": {"name": "Kadugodi Bus Station"}, "geometry": {"type": "Point", "coordinates": [77.75855, 12.99563]}}, {"type": "Feature", "properties": {"name": "I Gate"}, "geometry": {"type": "Point", "coordinates": [77.71882, 12.97717]}}, {"type": "Feature", "properties": {"name": "Kundalahalli Metro Station"}, "geometry": {"type": "Point", "coordinates": [77.71632, 12.97753]}}, {"type": "Feature", "properties": {"name": "GR Tech Park ITPL"}, "geometry": {"type": "Point", "coordinates": [77.74351, 12.98666]}}, {"type": "Feature", "properties": {"name": "SAP Labs"}, "geometry": {"type": "Point", "coordinates": [77.71448, 12.97765]}}, {"type": "Feature", "properties": {"name": "Graphite Junction"}, "geometry": {"type": "Point", "coordinates": [77.70808, 12.98524]}}, {"type": "Feature", "properties": {"name": "Graphite India"}, "geometry": {"type": "Point", "coordinates": [77.71135, 12.97821]}}, {"type": "Feature", "properties": {"name": "Immadihalli"}, "geometry": {"type": "Point", "coordinates": [77.76313, 12.96674]}}, {"type": "Feature", "properties": {"name": "Big Bazzar ITPL"}, "geometry": {"type": "Point", "coordinates": [77.73061, 12.98827]}}, {"type": "Feature", "properties": {"name": "Whitefiled ACP Police Station"}, "geometry": {"type": "Point", "coordinates": [77.75079, 12.97533]}}, {"type": "Feature", "properties": {"name": "ITPL"}, "geometry": {"type": "Point", "coordinates": [77.73704, 12.98766]}}, {"type": "Feature", "properties": {"name": "Munish Singh Hospital"}, "geometry": {"type": "Point", "coordinates": [77.75104, 12.97703]}}, {"type": "Feature", "properties": {"name": "CMRIT College"}, "geometry": {"type": "Point", "coordinates": [77.71447, 12.96763]}}, {"type": "Feature", "properties": {"name": "BEML Layout Gate"}, "geometry": {"type": "Point", "coordinates": [77.7165, 12.96054]}}, {"type": "Feature", "properties": {"name": "Kadugodi Bridge"}, "geometry": {"type": "Point", "coordinates": [77.75769, 12.99448]}}, {"type": "Feature", "properties": {"name": "Rajapalya"}, "geometry": {"type": "Point", "coordinates": [77.72084, 12.99138]}}, {"type": "Feature", "properties": {"name": "Munish Singh Hospital"}, "geometry": {"type": "Point", "coordinates": [77.75122, 12.97738]}}, {"type": "Feature", "properties": {"name": "Big Bazzar ITPL"}, "geometry": {"type": "Point", "coordinates": [77.73197, 12.98823]}}, {"type": "Feature", "properties": {"name": "Hoodi"}, "geometry": {"type": "Point", "coordinates": [77.71576, 12.99223]}}, {"type": "Feature", "properties": {"name": "Prestige Shantiniketana /Manipal Hospital"}, "geometry": {"type": "Point", "coordinates": [77.72844, 12.98872]}}, {"type": "Feature", "properties": {"name": "Nagondanahalli"}, "geometry": {"type": "Point", "coordinates": [77.77134, 12.97524]}}, {"type": "Feature", "properties": {"name": "KTPO"}, "geometry": {"type": "Point", "coordinates": [77.72242, 12.9768]}}, {"type": "Feature", "properties": {"name": "Hope Farm"}, "geometry": {"type": "Point", "coordinates": [77.75223, 12.98273]}}, {"type": "Feature", "properties": {"name": "Hope Farm"}, "geometry": {"type": "Point", "coordinates": [77.75261, 12.98429]}}, {"type": "Feature", "properties": {"name": "Kundalahalli"}, "geometry": {"type": "Point", "coordinates": [77.71571, 12.95815]}}, {"type": "Feature", "properties": {"name": "MVJ College Channasandra"}, "geometry": {"type": "Point", "coordinates": [77.76082, 12.98283]}}, {"type": "Feature", "properties": {"name": "Big Bazzar  ITPL"}, "geometry": {"type": "Point", "coordinates": [77.7318, 12.98795]}}, {"type": "Feature", "properties": {"name": "Whitefiled ACP Police Station"}, "geometry": {"type": "Point", "coordinates": [77.7507, 12.97538]}}, {"type": "Feature", "properties": {"name": "Channasandra"}, "geometry": {"type": "Point", "coordinates": [77.7683, 12.98348]}}, {"type": "Feature", "properties": {"name": "Kadugodi Bridge"}, "geometry": {"type": "Point", "coordinates": [77.75775, 12.99439]}}, {"type": "Feature", "properties": {"name": "Hoodi"}, "geometry": {"type": "Point", "coordinates": [77.71498, 12.99199]}}, {"type": "Feature", "properties": {"name": "Sai Baba General Hospital"}, "geometry": {"type": "Point", "coordinates": [77.75042, 12.97383]}}, {"type": "Feature", "properties": {"name": "Brook Steel ESI"}, "geometry": {"type": "Point", "coordinates": [77.70535, 12.9931]}}, {"type": "Feature", "properties": {"name": "Pattandur Agrahara Gate"}, "geometry": {"type": "Point", "coordinates": [77.73354, 12.98803]}}, {"type": "Feature", "properties": {"name": "BPL"}, "geometry": {"type": "Point", "coordinates": [77.74768, 12.98531]}}, {"type": "Feature", "properties": {"name": "Immadihalli"}, "geometry": {"type": "Point", "coordinates": [77.76309, 12.96669]}}, {"type": "Feature", "properties": {"name": "ITPL Metro Station"}, "geometry": {"type": "Point", "coordinates": [77.7373, 12.98774]}}, {"type": "Feature", "properties": {"name": "Sai Baba General Hospital"}, "geometry": {"type": "Point", "coordinates": [77.75065, 12.97454]}}, {"type": "Feature", "properties": {"name": "Kundalahalli Metro Station"}, "geometry": {"type": "Point", "coordinates": [77.71636, 12.9774]}}, {"type": "Feature", "properties": {"name": "ITPL Back Gate Big Bazzar"}, "geometry": {"type": "Point", "coordinates": [77.73165, 12.98658]}}, {"type": "Feature", "properties": {"name": "Garudacharpalya"}, "geometry": {"type": "Point", "coordinates": [77.70172, 12.99388]}}, {"type": "Feature", "properties": {"name": "Nagondanahalli"}, "geometry": {"type": "Point", "coordinates": [77.77131, 12.97526]}}, {"type": "Feature", "properties": {"name": "Channasandra"}, "geometry": {"type": "Point", "coordinates": [77.76702, 12.98334]}}, {"type": "Feature", "properties": {"name": "Prestige Shantiniketana /Manipal Hospital"}, "geometry": {"type": "Point", "coordinates": [77.72667, 12.98916]}}, {"type": "Feature", "properties": {"name": "Hope Farm"}, "geometry": {"type": "Point", "coordinates": [77.75189, 12.9839]}}, {"type": "Feature", "properties": {"name": "Kundalahalli"}, "geometry": {"type": "Point", "coordinates": [77.71566, 12.95832]}}, {"type": "Feature", "properties": {"name": "AECS Layout Cross"}, "geometry": {"type": "Point", "coordinates": [77.71832, 12.96495]}}, {"type": "Feature", "properties": {"name": "Hoodi Metro Station"}, "geometry": {"type": "Point", "coordinates": [77.7115, 12.98863]}}, {"type": "Feature", "properties": {"name": "BEML Layout Gate"}, "geometry": {"type": "Point", "coordinates": [77.71641, 12.96083]}}, {"type": "Feature", "properties": {"name": "AECS Layout Cross"}, "geometry": {"type": "Point", "coordinates": [77.71827, 12.96511]}}, {"type": "Feature", "properties": {"name": "Hoodi"}, "geometry": {"type": "Point", "coordinates": [77.71576, 12.99191]}}, {"type": "Feature", "properties": {"name": "I Gate"}, "geometry": {"type": "Point", "coordinates": [77.71863, 12.97734]}}, {"type": "Feature", "properties": {"name": "White Field Bus Station (Vydehi Hospital)"}, "geometry": {"type": "Point", "coordinates": [77.72693, 12.9774]}}, {"type": "Feature", "properties": {"name": "Hope Farm"}, "geometry": {"type": "Point", "coordinates": [77.75145, 12.98424]}}, {"type": "Feature", "properties": {"name": "Hope Farm"}, "geometry": {"type": "Point", "coordinates": [77.75305, 12.98376]}}, {"type": "Feature", "properties": {"name": "MVJ College Channasandra"}, "geometry": {"type": "Point", "coordinates": [77.76121, 12.98286]}}, {"type": "Feature", "properties": {"name": "White Field Post Office"}, "geometry": {"type": "Point", "coordinates": [77.75, 12.97056]}}, {"type": "Feature", "properties": {"name": "Kundalahalli Colony"}, "geometry": {"type": "Point", "coordinates": [77.71245, 12.97052]}}, {"type": "Feature", "properties": {"name": "White Field Post Office"}, "geometry": {"type": "Point", "coordinates": [77.75016, 12.96982]}}, {"type": "Feature", "properties": {"name": "BPL"}, "geometry": {"type": "Point", "coordinates": [77.74828, 12.98525]}}, {"type": "Feature", "properties": {"name": "GR Tech Park ITPL"}, "geometry": {"type": "Point", "coordinates": [77.74338, 12.98681]}}, {"type": "Feature", "properties": {"name": "Sathya Sai Hospital"}, "geometry": {"type": "Point", "coordinates": [77.72773, 12.9823]}}, {"type": "Feature", "properties": {"name": "Pattandur Agrahara Gate"}, "geometry": {"type": "Point", "coordinates": [77.73366, 12.9878]}}, {"type": "Feature", "properties": {"name": "Garudacharpalya"}, "geometry": {"type": "Point", "coordinates": [77.70158, 12.99403]}}, {"type": "Feature", "properties": {"name": "Kundalahalli Colony"}, "geometry": {"type": "Point", "coordinates": [77.71248, 12.97022]}}, {"type": "Feature", "properties": {"name": "White Field Bus Station (Vydehi Hospital)"}, "geometry": {"type": "Point", "coordinates": [77.72684, 12.97642]}}, {"type": "Feature", "properties": {"name": "ITPL Back Gate Big Bazzar"}, "geometry": {"type": "Point", "coordinates": [77.73171, 12.9863]}}, {"type": "Feature", "properties": {"name": "Sathya Sai Hospital"}, "geometry": {"type": "Point", "coordinates": [77.72811, 12.9827]}}, {"type": "Feature", "properties": {"name": "Kundalahalli Gate"}, "geometry": {"type": "Point", "coordinates": [77.71499, 12.95674]}}, {"type": "Feature", "properties": {"name": "Graphite India"}, "geometry": {"type": "Point", "coordinates": [77.71005, 12.97705]}}, {"type": "Feature", "properties": {"name": "SAP Labs"}, "geometry": {"type": "Point", "coordinates": [77.71439, 12.97782]}}, {"type": "Feature", "properties": {"name": "ITPL Metro Station"}, "geometry": {"type": "Point", "coordinates": [77.7373, 12.98754]}}, {"type": "Feature", "properties": {"name": "Brook Steel ESI"}, "geometry": {"type": "Point", "coordinates": [77.70547, 12.99295]}}, {"type": "Feature", "properties": {"name": "CMRIT College"}, "geometry": {"type": "Point", "coordinates": [77.71389, 12.96764]}}, {"type": "Feature", "properties": {"name": "KTPO"}, "geometry": {"type": "Point", "coordinates": [77.72225, 12.97702]}}, {"type": "Feature", "properties": {"name": "Rajapalya"}, "geometry": {"type": "Point", "coordinates": [77.72123, 12.99129]}}, {"type": "Feature", "properties": {"name": "ITPL"}, "geometry": {"type": "Point", "coordinates": [77.73636, 12.98754]}}]}