{"type": "FeatureCollection", "features": [{"type": "Feature", "properties": {"name": "B Channasandra Bridge(Ramamurthy Nagara Ring Road)"}, "geometry": {"type": "Point", "coordinates": [77.66232, 13.0112]}}, {"type": "Feature", "properties": {"name": "Ramamurthy Nagara Manipal"}, "geometry": {"type": "Point", "coordinates": [77.67054, 13.01164]}}, {"type": "Feature", "properties": {"name": "Subbayyanapalya/Ayyappa Temple"}, "geometry": {"type": "Point", "coordinates": [77.64093, 13.00755]}}, {"type": "Feature", "properties": {"name": "Muneshwara Nagara"}, "geometry": {"type": "Point", "coordinates": [77.67118, 13.01785]}}, {"type": "Feature", "properties": {"name": "Kalkere Cross"}, "geometry": {"type": "Point", "coordinates": [77.67891, 13.0213]}}, {"type": "Feature", "properties": {"name": "Anandapura"}, "geometry": {"type": "Point", "coordinates": [77.6927, 13.0241]}}, {"type": "Feature", "properties": {"name": "Graphite Junction"}, "geometry": {"type": "Point", "coordinates": [77.70808, 12.98524]}}, {"type": "Feature", "properties": {"name": "Raghavendra Circle"}, "geometry": {"type": "Point", "coordinates": [77.67445, 13.01994]}}, {"type": "Feature", "properties": {"name": "Vijaya Bank Colony Ring Road"}, "geometry": {"type": "Point", "coordinates": [77.65992, 13.01726]}}, {"type": "Feature", "properties": {"name": "B Channasandra Bridge(Ramamurthy Nagara Ring Road)"}, "geometry": {"type": "Point", "coordinates": [77.66193, 13.01329]}}, {"type": "Feature", "properties": {"name": "Mahadevapura Ring Road"}, "geometry": {"type": "Point", "coordinates": [77.6895, 12.98823]}}, {"type": "Feature", "properties": {"name": "B Narayanapura"}, "geometry": {"type": "Point", "coordinates": [77.68399, 13.00039]}}, {"type": "Feature", "properties": {"name": "Babusabpalya"}, "geometry": {"type": "Point", "coordinates": [77.64702, 13.0226]}}, {"type": "Feature", "properties": {"name": "Swamy Vivekananda Metro Station/Isolation Hospital"}, "geometry": {"type": "Point", "coordinates": [77.6434, 12.98507]}}, {"type": "Feature", "properties": {"name": "Hoodi"}, "geometry": {"type": "Point", "coordinates": [77.71576, 12.99223]}}, {"type": "Feature", "properties": {"name": "Mahadevapura"}, "geometry": {"type": "Point", "coordinates": [77.69064, 12.99738]}}, {"type": "Feature", "properties": {"name": "Ramamurthy Nagara Police Station"}, "geometry": {"type": "Point", "coordinates": [77.66778, 13.01205]}}, {"type": "Feature", "properties": {"name": "Singaianapalya Phoenix"}, "geometry": {"type": "Point", "coordinates": [77.6954, 12.99542]}}, {"type": "Feature", "properties": {"name": "TC Palya  Gate Hosakote Road"}, "geometry": {"type": "Point", "coordinates": [77.70438, 13.01738]}}, {"type": "Feature", "properties": {"name": "Singaianapalya Phoenix"}, "geometry": {"type": "Point", "coordinates": [77.69531, 12.9956]}}, {"type": "Feature", "properties": {"name": "KR Pura Market"}, "geometry": {"type": "Point", "coordinates": [77.69403, 13.00841]}}, {"type": "Feature", "properties": {"name": "Vijaya Bank Colony Ring Road"}, "geometry": {"type": "Point", "coordinates": [77.66021, 13.01695]}}, {"type": "Feature", "properties": {"name": "Brook Steel ESI"}, "geometry": {"type": "Point", "coordinates": [77.70535, 12.9931]}}, {"type": "Feature", "properties": {"name": "Krishnaraja Pura Govt Hospital"}, "geometry": {"type": "Point", "coordinates": [77.69217, 13.00804]}}, {"type": "Feature", "properties": {"name": "RK Apartment"}, "geometry": {"type": "Point", "coordinates": [77.66526, 13.01459]}}, {"type": "Feature", "properties": {"name": "Hoysala Nagara"}, "geometry": {"type": "Point", "coordinates": [77.66888, 13.01671]}}, {"type": "Feature", "properties": {"name": "TC Palya Cross"}, "geometry": {"type": "Point", "coordinates": [77.7049, 13.02084]}}, {"type": "Feature", "properties": {"name": "Hoodi Metro Station"}, "geometry": {"type": "Point", "coordinates": [77.7115, 12.98863]}}, {"type": "Feature", "properties": {"name": "KR Pura Metro Station"}, "geometry": {"type": "Point", "coordinates": [77.67664, 13.00014]}}, {"type": "Feature", "properties": {"name": "Hoodi"}, "geometry": {"type": "Point", "coordinates": [77.71576, 12.99191]}}, {"type": "Feature", "properties": {"name": "B Narayanapura"}, "geometry": {"type": "Point", "coordinates": [77.68415, 13.00028]}}, {"type": "Feature", "properties": {"name": "B Narayanapura Ring Road"}, "geometry": {"type": "Point", "coordinates": [77.68387, 12.99589]}}, {"type": "Feature", "properties": {"name": "Benniganahalli"}, "geometry": {"type": "Point", "coordinates": [77.6632, 12.99406]}}, {"type": "Feature", "properties": {"name": "Kasthurinagara"}, "geometry": {"type": "Point", "coordinates": [77.66313, 13.00397]}}, {"type": "Feature", "properties": {"name": "ITI Circle"}, "geometry": {"type": "Point", "coordinates": [77.68335, 13.00782]}}, {"type": "Feature", "properties": {"name": "Swamy Vivekananda Metro Station"}, "geometry": {"type": "Point", "coordinates": [77.64547, 12.98583]}}, {"type": "Feature", "properties": {"name": "ITI Circle"}, "geometry": {"type": "Point", "coordinates": [77.68338, 13.0079]}}, {"type": "Feature", "properties": {"name": "Bayyappanahalli Metro Station"}, "geometry": {"type": "Point", "coordinates": [77.65454, 12.99001]}}, {"type": "Feature", "properties": {"name": "Old Baiyappanahalli"}, "geometry": {"type": "Point", "coordinates": [77.64424, 12.99431]}}, {"type": "Feature", "properties": {"name": "Sir M Vishweshwaraiah Railway Station"}, "geometry": {"type": "Point", "coordinates": [77.64099, 12.99966]}}, {"type": "Feature", "properties": {"name": "Ramamurthy Nagara Alada Mara"}, "geometry": {"type": "Point", "coordinates": [77.67644, 13.01146]}}, {"type": "Feature", "properties": {"name": "Dodda Nekkundi Bridge/Rainbow Hospital"}, "geometry": {"type": "Point", "coordinates": [77.697, 12.97565]}}, {"type": "Feature", "properties": {"name": "Bayyappanahalli Cross"}, "geometry": {"type": "Point", "coordinates": [77.64246, 12.98525]}}, {"type": "Feature", "properties": {"name": "Brook Steel ESI"}, "geometry": {"type": "Point", "coordinates": [77.70547, 12.99295]}}, {"type": "Feature", "properties": {"name": "B Channasandra Bridge(Ramamurthy Nagara Ring Road)"}, "geometry": {"type": "Point", "coordinates": [77.66209, 13.01354]}}, {"type": "Feature", "properties": {"name": "KR Pura Extension"}, "geometry": {"type": "Point", "coordinates": [77.69862, 13.01172]}}, {"type": "Feature", "properties": {"name": "EMC2"}, "geometry": {"type": "Point", "coordinates": [77.69288, 12.98239]}}, {"type": "Feature", "properties": {"name": "ITI Colony Gate"}, "geometry": {"type": "Point", "coordinates": [77.6849, 13.00516]}}, {"type": "Feature", "properties": {"name": "B Channasandra Bridge(Ramamurthy Nagara Ring Road)"}, "geometry": {"type": "Point", "coordinates": [77.66272, 13.01318]}}, {"type": "Feature", "properties": {"name": "Ramamurthy Nagara Church"}, "geometry": {"type": "Point", "coordinates": [77.67891, 13.01169]}}, {"type": "Feature", "properties": {"name": "Bayyappanahalli Metro Station"}, "geometry": {"type": "Point", "coordinates": [77.65404, 12.98967]}}, {"type": "Feature", "properties": {"name": "Bhakthi Yoga Ashrama"}, "geometry": {"type": "Point", "coordinates": [77.68928, 13.02256]}}, {"type": "Feature", "properties": {"name": "Benniganahalli"}, "geometry": {"type": "Point", "coordinates": [77.6633, 12.99428]}}, {"type": "Feature", "properties": {"name": "Depot-24 Gate"}, "geometry": {"type": "Point", "coordinates": [77.6825, 13.00341]}}, {"type": "Feature", "properties": {"name": "New Baldwin School"}, "geometry": {"type": "Point", "coordinates": [77.65818, 13.01433]}}, {"type": "Feature", "properties": {"name": "EMC2"}, "geometry": {"type": "Point", "coordinates": [77.69301, 12.98256]}}, {"type": "Feature", "properties": {"name": "B Channasandra Bridge(Ramamurthy Nagara Ring Road)"}, "geometry": {"type": "Point", "coordinates": [77.66257, 13.01311]}}, {"type": "Feature", "properties": {"name": "Krishnaraja Pura Govt Hospital"}, "geometry": {"type": "Point", "coordinates": [77.69214, 13.00821]}}, {"type": "Feature", "properties": {"name": "KR Pura Railway Station"}, "geometry": {"type": "Point", "coordinates": [77.67654, 12.99998]}}, {"type": "Feature", "properties": {"name": "ITI Colony Gate"}, "geometry": {"type": "Point", "coordinates": [77.68506, 13.00503]}}, {"type": "Feature", "properties": {"name": "Horamavu"}, "geometry": {"type": "Point", "coordinates": [77.6539, 13.01969]}}, {"type": "Feature", "properties": {"name": "Depot-24 Gate"}, "geometry": {"type": "Point", "coordinates": [77.6825, 13.00331]}}, {"type": "Feature", "properties": {"name": "Yarayyanapalya"}, "geometry": {"type": "Point", "coordinates": [77.67317, 13.01155]}}, {"type": "Feature", "properties": {"name": "Yarayyanapalya"}, "geometry": {"type": "Point", "coordinates": [77.67342, 13.01149]}}, {"type": "Feature", "properties": {"name": "Mahadevapura Ring Road"}, "geometry": {"type": "Point", "coordinates": [77.68904, 12.98868]}}, {"type": "Feature", "properties": {"name": "Banasawadi"}, "geometry": {"type": "Point", "coordinates": [77.65102, 13.01441]}}, {"type": "Feature", "properties": {"name": "Ramamurthy Nagara Manipal"}, "geometry": {"type": "Point", "coordinates": [77.67044, 13.01169]}}, {"type": "Feature", "properties": {"name": "Koshys Hospital Kalkere"}, "geometry": {"type": "Point", "coordinates": [77.67701, 13.02067]}}, {"type": "Feature", "properties": {"name": "B Narayanapura Ring Road"}, "geometry": {"type": "Point", "coordinates": [77.68417, 12.99583]}}, {"type": "Feature", "properties": {"name": "Hoodi"}, "geometry": {"type": "Point", "coordinates": [77.71498, 12.99199]}}, {"type": "Feature", "properties": {"name": "Old Baiyappanahalli"}, "geometry": {"type": "Point", "coordinates": [77.64414, 12.99432]}}, {"type": "Feature", "properties": {"name": "Ramamurthy Nagara Police Station"}, "geometry": {"type": "Point", "coordinates": [77.66735, 13.01212]}}, {"type": "Feature", "properties": {"name": "Garudacharpalya"}, "geometry": {"type": "Point", "coordinates": [77.70172, 12.99388]}}, {"type": "Feature", "properties": {"name": "KR Pura Metro Station"}, "geometry": {"type": "Point", "coordinates": [77.67713, 13.0001]}}, {"type": "Feature", "properties": {"name": "Babusabpalya"}, "geometry": {"type": "Point", "coordinates": [77.64721, 13.02274]}}, {"type": "Feature", "properties": {"name": "Ramamurthy Nagara Church"}, "geometry": {"type": "Point", "coordinates": [77.67878, 13.01177]}}, {"type": "Feature", "properties": {"name": "ITI Colony Gate"}, "geometry": {"type": "Point", "coordinates": [77.68522, 13.00532]}}, {"type": "Feature", "properties": {"name": "TC Palya"}, "geometry": {"type": "Point", "coordinates": [77.69986, 13.02161]}}, {"type": "Feature", "properties": {"name": "Akshayanagara"}, "geometry": {"type": "Point", "coordinates": [77.68354, 13.02068]}}, {"type": "Feature", "properties": {"name": "Swamy Vivekananda Metro Station/Isolation Hospital"}, "geometry": {"type": "Point", "coordinates": [77.6452, 12.9859]}}, {"type": "Feature", "properties": {"name": "Krishnaraja Pura Govt Hospital"}, "geometry": {"type": "Point", "coordinates": [77.69271, 13.00798]}}, {"type": "Feature", "properties": {"name": "NGEF"}, "geometry": {"type": "Point", "coordinates": [77.64986, 12.98771]}}, {"type": "Feature", "properties": {"name": "Mahadevapura"}, "geometry": {"type": "Point", "coordinates": [77.69069, 12.9972]}}, {"type": "Feature", "properties": {"name": "Maruthi School"}, "geometry": {"type": "Point", "coordinates": [77.64413, 13.00961]}}, {"type": "Feature", "properties": {"name": "B Channasandra Bridge(Ramamurthy Nagara Ring Road)"}, "geometry": {"type": "Point", "coordinates": [77.66242, 13.01128]}}, {"type": "Feature", "properties": {"name": "Kasthurinagara"}, "geometry": {"type": "Point", "coordinates": [77.66328, 13.004]}}, {"type": "Feature", "properties": {"name": "Horamavu"}, "geometry": {"type": "Point", "coordinates": [77.65437, 13.01966]}}, {"type": "Feature", "properties": {"name": "Garudacharpalya"}, "geometry": {"type": "Point", "coordinates": [77.70158, 12.99403]}}, {"type": "Feature", "properties": {"name": "KR Pura Railway Station"}, "geometry": {"type": "Point", "coordinates": [77.67814, 13.00133]}}, {"type": "Feature", "properties": {"name": "Ramamurthy Nagara Alada Mara"}, "geometry": {"type": "Point", "coordinates": [77.67668, 13.01139]}}, {"type": "Feature", "properties": {"name": "NGEF"}, "geometry": {"type": "Point", "coordinates": [77.64987, 12.98787]}}, {"type": "Feature", "properties": {"name": "Tin Factory"}, "geometry": {"type": "Point", "coordinates": [77.66946, 12.99709]}}, {"type": "Feature", "properties": {"name": "KR Pura Railway Station"}, "geometry": {"type": "Point", "coordinates": [77.67597, 13.00022]}}, {"type": "Feature", "properties": {"name": "Steel Factory Banasawadi"}, "geometry": {"type": "Point", "coordinates": [77.64934, 13.01306]}}, {"type": "Feature", "properties": {"name": "Tin Factory"}, "geometry": {"type": "Point", "coordinates": [77.66857, 12.99645]}}, {"type": "Feature", "properties": {"name": "Dodda Nekkundi Bridge/Rainbow Hospital"}, "geometry": {"type": "Point", "coordinates": [77.69764, 12.97499]}}]}