{"type": "FeatureCollection", "features": [{"type": "Feature", "properties": {"name": "Military Accounts Office"}, "geometry": {"type": "Point", "coordinates": [77.62117, 12.96691]}}, {"type": "Feature", "properties": {"name": "Maniksha Parade Ground"}, "geometry": {"type": "Point", "coordinates": [77.60771, 12.97746]}}, {"type": "Feature", "properties": {"name": "Devis Road"}, "geometry": {"type": "Point", "coordinates": [77.61899, 13.00327]}}, {"type": "Feature", "properties": {"name": "Double Road Indiranagara"}, "geometry": {"type": "Point", "coordinates": [77.6366, 12.97832]}}, {"type": "Feature", "properties": {"name": "Philomenas Hospital"}, "geometry": {"type": "Point", "coordinates": [77.61011, 12.96508]}}, {"type": "Feature", "properties": {"name": "Depot-06 Gate"}, "geometry": {"type": "Point", "coordinates": [77.63463, 12.98246]}}, {"type": "Feature", "properties": {"name": "TV Tower"}, "geometry": {"type": "Point", "coordinates": [77.59078, 13.00978]}}, {"type": "Feature", "properties": {"name": "Devis Road"}, "geometry": {"type": "Point", "coordinates": [77.61968, 13.00426]}}, {"type": "Feature", "properties": {"name": "ASC Centre"}, "geometry": {"type": "Point", "coordinates": [77.61901, 12.96224]}}, {"type": "Feature", "properties": {"name": "Frazer Town"}, "geometry": {"type": "Point", "coordinates": [77.61144, 13.00082]}}, {"type": "Feature", "properties": {"name": "Jayamahal"}, "geometry": {"type": "Point", "coordinates": [77.59448, 13.00189]}}, {"type": "Feature", "properties": {"name": "Swamy Vivekananda Metro Station/Isolation Hospital"}, "geometry": {"type": "Point", "coordinates": [77.6434, 12.98507]}}, {"type": "Feature", "properties": {"name": "Johnson Market"}, "geometry": {"type": "Point", "coordinates": [77.60681, 12.96351]}}, {"type": "Feature", "properties": {"name": "Halasuru"}, "geometry": {"type": "Point", "coordinates": [77.6283, 12.97793]}}, {"type": "Feature", "properties": {"name": "TV Tower"}, "geometry": {"type": "Point", "coordinates": [77.59078, 13.00964]}}, {"type": "Feature", "properties": {"name": "MICO Factory Junction"}, "geometry": {"type": "Point", "coordinates": [77.60286, 12.94428]}}, {"type": "Feature", "properties": {"name": "Indiranagara Metro Station"}, "geometry": {"type": "Point", "coordinates": [77.63848, 12.97837]}}, {"type": "Feature", "properties": {"name": "Indian Express"}, "geometry": {"type": "Point", "coordinates": [77.59735, 12.98421]}}, {"type": "Feature", "properties": {"name": "Military Accounts Office"}, "geometry": {"type": "Point", "coordinates": [77.62089, 12.96694]}}, {"type": "Feature", "properties": {"name": "Lido Talkies"}, "geometry": {"type": "Point", "coordinates": [77.62074, 12.97277]}}, {"type": "Feature", "properties": {"name": "Domlur"}, "geometry": {"type": "Point", "coordinates": [77.63667, 12.96122]}}, {"type": "Feature", "properties": {"name": "Indoor Stadium"}, "geometry": {"type": "Point", "coordinates": [77.6225, 12.94279]}}, {"type": "Feature", "properties": {"name": "Vannarapet"}, "geometry": {"type": "Point", "coordinates": [77.62095, 12.95625]}}, {"type": "Feature", "properties": {"name": "Indiranagara Metro Station"}, "geometry": {"type": "Point", "coordinates": [77.6386, 12.97826]}}, {"type": "Feature", "properties": {"name": "Ravi Tent"}, "geometry": {"type": "Point", "coordinates": [77.62148, 12.95169]}}, {"type": "Feature", "properties": {"name": "Doddy"}, "geometry": {"type": "Point", "coordinates": [77.61215, 13.00266]}}, {"type": "Feature", "properties": {"name": "Munireddy Palya J C Nagara"}, "geometry": {"type": "Point", "coordinates": [77.59359, 13.00413]}}, {"type": "Feature", "properties": {"name": "Coles Park"}, "geometry": {"type": "Point", "coordinates": [77.60829, 12.99534]}}, {"type": "Feature", "properties": {"name": "Elgin Floor Mill"}, "geometry": {"type": "Point", "coordinates": [77.6061, 12.95873]}}, {"type": "Feature", "properties": {"name": "CSI Hospital"}, "geometry": {"type": "Point", "coordinates": [77.59938, 12.98983]}}, {"type": "Feature", "properties": {"name": "Periyar Nagara Circle"}, "geometry": {"type": "Point", "coordinates": [77.61328, 13.00853]}}, {"type": "Feature", "properties": {"name": "Life Style (Sacred Heart School)"}, "geometry": {"type": "Point", "coordinates": [77.61018, 12.96692]}}, {"type": "Feature", "properties": {"name": "Adugodi Police Station"}, "geometry": {"type": "Point", "coordinates": [77.6095, 12.93985]}}, {"type": "Feature", "properties": {"name": "Kamaraja Road"}, "geometry": {"type": "Point", "coordinates": [77.61165, 12.98424]}}, {"type": "Feature", "properties": {"name": "MG Road Metro Station"}, "geometry": {"type": "Point", "coordinates": [77.60671, 12.97547]}}, {"type": "Feature", "properties": {"name": "National Games Village Gate"}, "geometry": {"type": "Point", "coordinates": [77.62039, 12.94928]}}, {"type": "Feature", "properties": {"name": "Charls School Toll Gate"}, "geometry": {"type": "Point", "coordinates": [77.62084, 13.00616]}}, {"type": "Feature", "properties": {"name": "Neelasandra Bus Stand"}, "geometry": {"type": "Point", "coordinates": [77.61429, 12.95766]}}, {"type": "Feature", "properties": {"name": "BRV Talkies Cubbon Road"}, "geometry": {"type": "Point", "coordinates": [77.60273, 12.97911]}}, {"type": "Feature", "properties": {"name": "Passport Office Koramangala"}, "geometry": {"type": "Point", "coordinates": [77.61923, 12.94545]}}, {"type": "Feature", "properties": {"name": "Lakshmipura"}, "geometry": {"type": "Point", "coordinates": [77.63228, 12.97816]}}, {"type": "Feature", "properties": {"name": "Military Accounts Office"}, "geometry": {"type": "Point", "coordinates": [77.6203, 12.96707]}}, {"type": "Feature", "properties": {"name": "Electric B Station"}, "geometry": {"type": "Point", "coordinates": [77.61394, 12.97405]}}, {"type": "Feature", "properties": {"name": "East Railway Station"}, "geometry": {"type": "Point", "coordinates": [77.61865, 13.00143]}}, {"type": "Feature", "properties": {"name": "Vivek Nagara Cross"}, "geometry": {"type": "Point", "coordinates": [77.62074, 12.95469]}}, {"type": "Feature", "properties": {"name": "Indian Express"}, "geometry": {"type": "Point", "coordinates": [77.59827, 12.98408]}}, {"type": "Feature", "properties": {"name": "Binnamangala"}, "geometry": {"type": "Point", "coordinates": [77.63834, 12.98331]}}, {"type": "Feature", "properties": {"name": "Pothalappa Garden"}, "geometry": {"type": "Point", "coordinates": [77.60587, 12.94962]}}, {"type": "Feature", "properties": {"name": "Binnamangala"}, "geometry": {"type": "Point", "coordinates": [77.64002, 12.98384]}}, {"type": "Feature", "properties": {"name": "Binnamangala"}, "geometry": {"type": "Point", "coordinates": [77.64049, 12.98368]}}, {"type": "Feature", "properties": {"name": "Shoolay Circle Brigade Road"}, "geometry": {"type": "Point", "coordinates": [77.60687, 12.96584]}}, {"type": "Feature", "properties": {"name": "Double Road Indiranagara"}, "geometry": {"type": "Point", "coordinates": [77.63645, 12.97821]}}, {"type": "Feature", "properties": {"name": "Charls School Toll Gate"}, "geometry": {"type": "Point", "coordinates": [77.62099, 13.00616]}}, {"type": "Feature", "properties": {"name": "Commando Hospital"}, "geometry": {"type": "Point", "coordinates": [77.62756, 12.96271]}}, {"type": "Feature", "properties": {"name": "Neelasandra Rose Garden"}, "geometry": {"type": "Point", "coordinates": [77.61737, 12.95379]}}, {"type": "Feature", "properties": {"name": "Vivek Nagara"}, "geometry": {"type": "Point", "coordinates": [77.62302, 12.95443]}}, {"type": "Feature", "properties": {"name": "St Johns School Thamos Cafe"}, "geometry": {"type": "Point", "coordinates": [77.61155, 12.99165]}}, {"type": "Feature", "properties": {"name": "Bamboo Bazaar"}, "geometry": {"type": "Point", "coordinates": [77.60332, 12.99192]}}, {"type": "Feature", "properties": {"name": "Munireddy Palya J C Nagara"}, "geometry": {"type": "Point", "coordinates": [77.59276, 13.00676]}}, {"type": "Feature", "properties": {"name": "Shivajinagara Bus Station"}, "geometry": {"type": "Point", "coordinates": [77.60323, 12.98396]}}, {"type": "Feature", "properties": {"name": "Gurudwara"}, "geometry": {"type": "Point", "coordinates": [77.62001, 12.97604]}}, {"type": "Feature", "properties": {"name": "MG Road Metro Station"}, "geometry": {"type": "Point", "coordinates": [77.60644, 12.97541]}}, {"type": "Feature", "properties": {"name": "Fairland Shop"}, "geometry": {"type": "Point", "coordinates": [77.62546, 12.95041]}}, {"type": "Feature", "properties": {"name": "Jayamahal"}, "geometry": {"type": "Point", "coordinates": [77.59478, 13.00034]}}, {"type": "Feature", "properties": {"name": "Lido Talkies"}, "geometry": {"type": "Point", "coordinates": [77.6214, 12.97282]}}, {"type": "Feature", "properties": {"name": "Shoolay Circle Brigade Road"}, "geometry": {"type": "Point", "coordinates": [77.60666, 12.96659]}}, {"type": "Feature", "properties": {"name": "Vivek Nagara Cross"}, "geometry": {"type": "Point", "coordinates": [77.62069, 12.95457]}}, {"type": "Feature", "properties": {"name": "Halasuru Police Station"}, "geometry": {"type": "Point", "coordinates": [77.62544, 12.97516]}}, {"type": "Feature", "properties": {"name": "Mayohall"}, "geometry": {"type": "Point", "coordinates": [77.6099, 12.97336]}}, {"type": "Feature", "properties": {"name": "Depot-06 Gate"}, "geometry": {"type": "Point", "coordinates": [77.63503, 12.98262]}}, {"type": "Feature", "properties": {"name": "Lingarajapura Bridge"}, "geometry": {"type": "Point", "coordinates": [77.6232, 13.00906]}}, {"type": "Feature", "properties": {"name": "Cantonment Railway Station"}, "geometry": {"type": "Point", "coordinates": [77.59712, 12.99384]}}, {"type": "Feature", "properties": {"name": "MICO Factory Junction"}, "geometry": {"type": "Point", "coordinates": [77.60276, 12.94453]}}, {"type": "Feature", "properties": {"name": "Indian Express"}, "geometry": {"type": "Point", "coordinates": [77.5974, 12.98393]}}, {"type": "Feature", "properties": {"name": "Coles Park"}, "geometry": {"type": "Point", "coordinates": [77.60668, 12.99573]}}, {"type": "Feature", "properties": {"name": "ASC Centre"}, "geometry": {"type": "Point", "coordinates": [77.61906, 12.96245]}}, {"type": "Feature", "properties": {"name": "Neelasandra Bus Stand"}, "geometry": {"type": "Point", "coordinates": [77.61444, 12.95746]}}, {"type": "Feature", "properties": {"name": "Neelasandra BDA Complex"}, "geometry": {"type": "Point", "coordinates": [77.61498, 12.95723]}}, {"type": "Feature", "properties": {"name": "Hosmat Hospital"}, "geometry": {"type": "Point", "coordinates": [77.61333, 12.96879]}}, {"type": "Feature", "properties": {"name": "D Souza Circle"}, "geometry": {"type": "Point", "coordinates": [77.61106, 12.96755]}}, {"type": "Feature", "properties": {"name": "Indiranagara Police Station/KFC"}, "geometry": {"type": "Point", "coordinates": [77.6408, 12.97857]}}, {"type": "Feature", "properties": {"name": "Ravi Tent"}, "geometry": {"type": "Point", "coordinates": [77.62138, 12.95166]}}, {"type": "Feature", "properties": {"name": "Trinity Circle"}, "geometry": {"type": "Point", "coordinates": [77.6197, 12.97093]}}, {"type": "Feature", "properties": {"name": "Shine Bakery"}, "geometry": {"type": "Point", "coordinates": [77.6239, 12.95067]}}, {"type": "Feature", "properties": {"name": "Indoor Stadium"}, "geometry": {"type": "Point", "coordinates": [77.62248, 12.94272]}}, {"type": "Feature", "properties": {"name": "BRV Talkies Cubbon Road"}, "geometry": {"type": "Point", "coordinates": [77.60223, 12.97941]}}, {"type": "Feature", "properties": {"name": "National Games Village Gate"}, "geometry": {"type": "Point", "coordinates": [77.61997, 12.94868]}}, {"type": "Feature", "properties": {"name": "Philomenas Hospital"}, "geometry": {"type": "Point", "coordinates": [77.61011, 12.96475]}}, {"type": "Feature", "properties": {"name": "MG Road"}, "geometry": {"type": "Point", "coordinates": [77.60204, 12.97779]}}, {"type": "Feature", "properties": {"name": "Austin Town"}, "geometry": {"type": "Point", "coordinates": [77.61456, 12.96153]}}, {"type": "Feature", "properties": {"name": "Austin Town Neelasandra"}, "geometry": {"type": "Point", "coordinates": [77.61254, 12.9616]}}, {"type": "Feature", "properties": {"name": "Adugodi Police Station"}, "geometry": {"type": "Point", "coordinates": [77.60976, 12.93897]}}, {"type": "Feature", "properties": {"name": "Cunningham Road"}, "geometry": {"type": "Point", "coordinates": [77.59427, 12.98787]}}, {"type": "Feature", "properties": {"name": "Lingarajapura Bridge"}, "geometry": {"type": "Point", "coordinates": [77.62331, 13.00906]}}, {"type": "Feature", "properties": {"name": "Frazer Town"}, "geometry": {"type": "Point", "coordinates": [77.61196, 13.00115]}}, {"type": "Feature", "properties": {"name": "Shine Bakery"}, "geometry": {"type": "Point", "coordinates": [77.62375, 12.95074]}}, {"type": "Feature", "properties": {"name": "Pothalappa Garden"}, "geometry": {"type": "Point", "coordinates": [77.60597, 12.9498]}}, {"type": "Feature", "properties": {"name": "Elgin Floor Mill"}, "geometry": {"type": "Point", "coordinates": [77.60612, 12.95814]}}, {"type": "Feature", "properties": {"name": "Canara Bank Tannery Road"}, "geometry": {"type": "Point", "coordinates": [77.61245, 13.00625]}}, {"type": "Feature", "properties": {"name": "Indiranagara Police Station/KFC"}, "geometry": {"type": "Point", "coordinates": [77.64065, 12.97833]}}, {"type": "Feature", "properties": {"name": "Shivajinagara Bus Station"}, "geometry": {"type": "Point", "coordinates": [77.60304, 12.98328]}}, {"type": "Feature", "properties": {"name": "Halasuru Police Station"}, "geometry": {"type": "Point", "coordinates": [77.62564, 12.97515]}}, {"type": "Feature", "properties": {"name": "Trinity Circle"}, "geometry": {"type": "Point", "coordinates": [77.61959, 12.97071]}}, {"type": "Feature", "properties": {"name": "Vannarapet"}, "geometry": {"type": "Point", "coordinates": [77.62115, 12.95647]}}, {"type": "Feature", "properties": {"name": "Halasuru"}, "geometry": {"type": "Point", "coordinates": [77.62956, 12.97968]}}, {"type": "Feature", "properties": {"name": "St Patrick Church"}, "geometry": {"type": "Point", "coordinates": [77.60517, 12.97023]}}, {"type": "Feature", "properties": {"name": "Bamboo Bazaar"}, "geometry": {"type": "Point", "coordinates": [77.60402, 12.99208]}}, {"type": "Feature", "properties": {"name": "Philips Millenium Halasuru"}, "geometry": {"type": "Point", "coordinates": [77.62443, 12.98196]}}, {"type": "Feature", "properties": {"name": "Halasuru"}, "geometry": {"type": "Point", "coordinates": [77.62922, 12.97849]}}, {"type": "Feature", "properties": {"name": "Binnamangala"}, "geometry": {"type": "Point", "coordinates": [77.64067, 12.9835]}}, {"type": "Feature", "properties": {"name": "Anepalya"}, "geometry": {"type": "Point", "coordinates": [77.60518, 12.95303]}}, {"type": "Feature", "properties": {"name": "Postal and Telecom Colony"}, "geometry": {"type": "Point", "coordinates": [77.61614, 13.01201]}}, {"type": "Feature", "properties": {"name": "Johnson Market"}, "geometry": {"type": "Point", "coordinates": [77.60672, 12.96336]}}, {"type": "Feature", "properties": {"name": "Mayohall G-2"}, "geometry": {"type": "Point", "coordinates": [77.61119, 12.97395]}}, {"type": "Feature", "properties": {"name": "Manipal Centre"}, "geometry": {"type": "Point", "coordinates": [77.61436, 12.97493]}}, {"type": "Feature", "properties": {"name": "Anepalya"}, "geometry": {"type": "Point", "coordinates": [77.60532, 12.95289]}}, {"type": "Feature", "properties": {"name": "Ejipura"}, "geometry": {"type": "Point", "coordinates": [77.62876, 12.94684]}}, {"type": "Feature", "properties": {"name": "Mayohall"}, "geometry": {"type": "Point", "coordinates": [77.61051, 12.97349]}}, {"type": "Feature", "properties": {"name": "Ejipura"}, "geometry": {"type": "Point", "coordinates": [77.62883, 12.94669]}}, {"type": "Feature", "properties": {"name": "Neelasandra Rose Garden"}, "geometry": {"type": "Point", "coordinates": [77.61752, 12.95371]}}, {"type": "Feature", "properties": {"name": "Clarence School"}, "geometry": {"type": "Point", "coordinates": [77.61666, 13.00309]}}, {"type": "Feature", "properties": {"name": "Maniksha Parade Ground"}, "geometry": {"type": "Point", "coordinates": [77.60747, 12.97773]}}, {"type": "Feature", "properties": {"name": "Manipal Centre MG Road"}, "geometry": {"type": "Point", "coordinates": [77.61356, 12.97552]}}, {"type": "Feature", "properties": {"name": "Indiranagara Police Station/KFC"}, "geometry": {"type": "Point", "coordinates": [77.64125, 12.97844]}}, {"type": "Feature", "properties": {"name": "Manipal Centre MG Road"}, "geometry": {"type": "Point", "coordinates": [77.61358, 12.97571]}}, {"type": "Feature", "properties": {"name": "Lakshmipura"}, "geometry": {"type": "Point", "coordinates": [77.63218, 12.97827]}}, {"type": "Feature", "properties": {"name": "Passport Office Koramangala"}, "geometry": {"type": "Point", "coordinates": [77.61871, 12.94573]}}, {"type": "Feature", "properties": {"name": "Bengaluru Dairy Circle"}, "geometry": {"type": "Point", "coordinates": [77.6021, 12.93909]}}, {"type": "Feature", "properties": {"name": "Garuda Mall"}, "geometry": {"type": "Point", "coordinates": [77.61042, 12.96969]}}, {"type": "Feature", "properties": {"name": "Commercial Street"}, "geometry": {"type": "Point", "coordinates": [77.60968, 12.97985]}}, {"type": "Feature", "properties": {"name": "Trinity Metro Station"}, "geometry": {"type": "Point", "coordinates": [77.61689, 12.97295]}}, {"type": "Feature", "properties": {"name": "Fairland Shop"}, "geometry": {"type": "Point", "coordinates": [77.62531, 12.95044]}}, {"type": "Feature", "properties": {"name": "Domlur Flyover"}, "geometry": {"type": "Point", "coordinates": [77.64251, 12.96045]}}, {"type": "Feature", "properties": {"name": "Vasantha Nagara"}, "geometry": {"type": "Point", "coordinates": [77.59503, 12.99278]}}, {"type": "Feature", "properties": {"name": "Domlur"}, "geometry": {"type": "Point", "coordinates": [77.63809, 12.96111]}}, {"type": "Feature", "properties": {"name": "Commando Hospital"}, "geometry": {"type": "Point", "coordinates": [77.62641, 12.96364]}}, {"type": "Feature", "properties": {"name": "Muslim Colony"}, "geometry": {"type": "Point", "coordinates": [77.61541, 13.01085]}}, {"type": "Feature", "properties": {"name": "Adugodi"}, "geometry": {"type": "Point", "coordinates": [77.60761, 12.94384]}}, {"type": "Feature", "properties": {"name": "Vivek Nagara"}, "geometry": {"type": "Point", "coordinates": [77.62303, 12.95417]}}, {"type": "Feature", "properties": {"name": "Adugodi"}, "geometry": {"type": "Point", "coordinates": [77.6077, 12.94387]}}, {"type": "Feature", "properties": {"name": "Shivajinagara Bus Station"}, "geometry": {"type": "Point", "coordinates": [77.60341, 12.98328]}}, {"type": "Feature", "properties": {"name": "Austin Town"}, "geometry": {"type": "Point", "coordinates": [77.61344, 12.96156]}}]}