{"type": "FeatureCollection", "features": [{"type": "Feature", "properties": {"name": "BUC Ladies Hostel"}, "geometry": {"type": "Point", "coordinates": [77.50602, 12.94187]}}, {"type": "Feature", "properties": {"name": "Dodda Basti"}, "geometry": {"type": "Point", "coordinates": [77.47289, 12.93956]}}, {"type": "Feature", "properties": {"name": "Bande Mutt Gate Kengeri"}, "geometry": {"type": "Point", "coordinates": [77.47752, 12.91902]}}, {"type": "Feature", "properties": {"name": "Gollahallii Road Junction"}, "geometry": {"type": "Point", "coordinates": [77.48881, 12.90769]}}, {"type": "Feature", "properties": {"name": "Beedi Karmikara Colony Gate"}, "geometry": {"type": "Point", "coordinates": [77.47478, 12.92237]}}, {"type": "Feature", "properties": {"name": "Anchepalya"}, "geometry": {"type": "Point", "coordinates": [77.45753, 12.8926]}}, {"type": "Feature", "properties": {"name": "RR Medical College"}, "geometry": {"type": "Point", "coordinates": [77.46058, 12.89633]}}, {"type": "Feature", "properties": {"name": "Hyundai showroom mysore road"}, "geometry": {"type": "Point", "coordinates": [77.50166, 12.92703]}}, {"type": "Feature", "properties": {"name": "Indo American Hybrid Farm"}, "geometry": {"type": "Point", "coordinates": [77.51236, 12.90406]}}, {"type": "Feature", "properties": {"name": "Nagadevanahalli"}, "geometry": {"type": "Point", "coordinates": [77.49235, 12.93597]}}, {"type": "Feature", "properties": {"name": "Bhuvaneshwari Nagara 1st Stage"}, "geometry": {"type": "Point", "coordinates": [77.4903, 12.94227]}}, {"type": "Feature", "properties": {"name": "Gollahallii Road Junction"}, "geometry": {"type": "Point", "coordinates": [77.48893, 12.90756]}}, {"type": "Feature", "properties": {"name": "PVP School"}, "geometry": {"type": "Point", "coordinates": [77.49715, 12.94882]}}, {"type": "Feature", "properties": {"name": "Sridhara Gudda"}, "geometry": {"type": "Point", "coordinates": [77.48766, 12.8992]}}, {"type": "Feature", "properties": {"name": "Bhuvaneshwari Nagara 1st Stage"}, "geometry": {"type": "Point", "coordinates": [77.49044, 12.94222]}}, {"type": "Feature", "properties": {"name": "Indo American Hybrid Farm"}, "geometry": {"type": "Point", "coordinates": [77.51245, 12.90402]}}, {"type": "Feature", "properties": {"name": "Jayaram Das Factory"}, "geometry": {"type": "Point", "coordinates": [77.5056, 12.93011]}}, {"type": "Feature", "properties": {"name": "Konasandra Cross"}, "geometry": {"type": "Point", "coordinates": [77.48641, 12.89238]}}, {"type": "Feature", "properties": {"name": "Sonnenahalli"}, "geometry": {"type": "Point", "coordinates": [77.47913, 12.94205]}}, {"type": "Feature", "properties": {"name": "Jayaram Das Factory"}, "geometry": {"type": "Point", "coordinates": [77.50594, 12.93025]}}, {"type": "Feature", "properties": {"name": "RR Medical College"}, "geometry": {"type": "Point", "coordinates": [77.46084, 12.89618]}}, {"type": "Feature", "properties": {"name": "Gattigerepalya"}, "geometry": {"type": "Point", "coordinates": [77.50223, 12.88369]}}, {"type": "Feature", "properties": {"name": "1st Block Vishweshwaraiah Layout"}, "geometry": {"type": "Point", "coordinates": [77.47876, 12.93747]}}, {"type": "Feature", "properties": {"name": "Kengeri Satellite Town"}, "geometry": {"type": "Point", "coordinates": [77.48483, 12.92351]}}, {"type": "Feature", "properties": {"name": "Gattigerepalya"}, "geometry": {"type": "Point", "coordinates": [77.50221, 12.88356]}}, {"type": "Feature", "properties": {"name": "Basavanagara Kengeri"}, "geometry": {"type": "Point", "coordinates": [77.46733, 12.90106]}}, {"type": "Feature", "properties": {"name": "Kommaghatta Junction"}, "geometry": {"type": "Point", "coordinates": [77.48149, 12.91448]}}, {"type": "Feature", "properties": {"name": "Savandarbar Ashrama"}, "geometry": {"type": "Point", "coordinates": [77.49224, 12.90959]}}, {"type": "Feature", "properties": {"name": "Nagadevanahalli"}, "geometry": {"type": "Point", "coordinates": [77.49238, 12.93567]}}, {"type": "Feature", "properties": {"name": "Shirke KHB Quarters"}, "geometry": {"type": "Point", "coordinates": [77.48772, 12.93175]}}, {"type": "Feature", "properties": {"name": "Kengeri Railway Station"}, "geometry": {"type": "Point", "coordinates": [77.48235, 12.9168]}}, {"type": "Feature", "properties": {"name": "BGS Health City Gate Abhiman Studio"}, "geometry": {"type": "Point", "coordinates": [77.49909, 12.90714]}}, {"type": "Feature", "properties": {"name": "Bande Mutt Gate Kengeri"}, "geometry": {"type": "Point", "coordinates": [77.47743, 12.91916]}}, {"type": "Feature", "properties": {"name": "Bhuvaneshwari Nagara 2nd Stage"}, "geometry": {"type": "Point", "coordinates": [77.48713, 12.94259]}}, {"type": "Feature", "properties": {"name": "Mariyappanapalya"}, "geometry": {"type": "Point", "coordinates": [77.4954, 12.94527]}}, {"type": "Feature", "properties": {"name": "Bengaluru University Gate"}, "geometry": {"type": "Point", "coordinates": [77.51269, 12.93537]}}, {"type": "Feature", "properties": {"name": "Dodda Basti"}, "geometry": {"type": "Point", "coordinates": [77.47298, 12.93967]}}, {"type": "Feature", "properties": {"name": "Kengeri Church"}, "geometry": {"type": "Point", "coordinates": [77.48642, 12.9282]}}, {"type": "Feature", "properties": {"name": "Kengeri Railway Station"}, "geometry": {"type": "Point", "coordinates": [77.48243, 12.91696]}}, {"type": "Feature", "properties": {"name": "Kengeri Ganesha Temple"}, "geometry": {"type": "Point", "coordinates": [77.48029, 12.91126]}}, {"type": "Feature", "properties": {"name": "Savandarbar Ashrama"}, "geometry": {"type": "Point", "coordinates": [77.49228, 12.90962]}}, {"type": "Feature", "properties": {"name": "Kengeri Bus Station"}, "geometry": {"type": "Point", "coordinates": [77.48645, 12.91406]}}, {"type": "Feature", "properties": {"name": "Mylasandra Cross"}, "geometry": {"type": "Point", "coordinates": [77.49064, 12.91749]}}, {"type": "Feature", "properties": {"name": "Bhuvaneshwari Nagara 2nd Stage"}, "geometry": {"type": "Point", "coordinates": [77.48728, 12.94262]}}, {"type": "Feature", "properties": {"name": "Dubasipalya Cross"}, "geometry": {"type": "Point", "coordinates": [77.49603, 12.92273]}}, {"type": "Feature", "properties": {"name": "Robin Theatre"}, "geometry": {"type": "Point", "coordinates": [77.47986, 12.91602]}}, {"type": "Feature", "properties": {"name": "Omkar Hills"}, "geometry": {"type": "Point", "coordinates": [77.50463, 12.90474]}}, {"type": "Feature", "properties": {"name": "BUC Library"}, "geometry": {"type": "Point", "coordinates": [77.50435, 12.94439]}}, {"type": "Feature", "properties": {"name": "Kenchanapura Cross"}, "geometry": {"type": "Point", "coordinates": [77.49352, 12.94151]}}, {"type": "Feature", "properties": {"name": "Robin Theatre"}, "geometry": {"type": "Point", "coordinates": [77.47997, 12.91588]}}, {"type": "Feature", "properties": {"name": "Kenchanapura Cross"}, "geometry": {"type": "Point", "coordinates": [77.49343, 12.94151]}}, {"type": "Feature", "properties": {"name": "Kengeri"}, "geometry": {"type": "Point", "coordinates": [77.4854, 12.91237]}}, {"type": "Feature", "properties": {"name": "Kengeri Police Station"}, "geometry": {"type": "Point", "coordinates": [77.48146, 12.91007]}}, {"type": "Feature", "properties": {"name": "Kodipalya"}, "geometry": {"type": "Point", "coordinates": [77.48786, 12.90378]}}, {"type": "Feature", "properties": {"name": "Dubasipalya Cross"}, "geometry": {"type": "Point", "coordinates": [77.49583, 12.9229]}}, {"type": "Feature", "properties": {"name": "Shivaji Hotel"}, "geometry": {"type": "Point", "coordinates": [77.47649, 12.94311]}}, {"type": "Feature", "properties": {"name": "Sonnenahalli Bridge"}, "geometry": {"type": "Point", "coordinates": [77.48285, 12.94208]}}, {"type": "Feature", "properties": {"name": "Rajarajeshwari nagara Gate"}, "geometry": {"type": "Point", "coordinates": [77.51774, 12.93631]}}, {"type": "Feature", "properties": {"name": "1st Block Vishweshwaraiah Layout"}, "geometry": {"type": "Point", "coordinates": [77.4789, 12.93752]}}, {"type": "Feature", "properties": {"name": "Kengeri Post Office"}, "geometry": {"type": "Point", "coordinates": [77.48182, 12.91536]}}, {"type": "Feature", "properties": {"name": "Konasandra Cross"}, "geometry": {"type": "Point", "coordinates": [77.48641, 12.89247]}}, {"type": "Feature", "properties": {"name": "Kommaghatta Junction"}, "geometry": {"type": "Point", "coordinates": [77.48141, 12.91431]}}, {"type": "Feature", "properties": {"name": "JSS College"}, "geometry": {"type": "Point", "coordinates": [77.50837, 12.90385]}}, {"type": "Feature", "properties": {"name": "Rajarajeshwari nagara Gate"}, "geometry": {"type": "Point", "coordinates": [77.51861, 12.93649]}}, {"type": "Feature", "properties": {"name": "Ramasandra Cross"}, "geometry": {"type": "Point", "coordinates": [77.46169, 12.93257]}}, {"type": "Feature", "properties": {"name": "Ramasandra Cross"}, "geometry": {"type": "Point", "coordinates": [77.46163, 12.93259]}}, {"type": "Feature", "properties": {"name": "Shirke KHB Quarters"}, "geometry": {"type": "Point", "coordinates": [77.48751, 12.93133]}}, {"type": "Feature", "properties": {"name": "Sonnenahalli Bridge"}, "geometry": {"type": "Point", "coordinates": [77.48357, 12.94197]}}, {"type": "Feature", "properties": {"name": "NICE Road Kengeri Road Junction"}, "geometry": {"type": "Point", "coordinates": [77.46944, 12.90277]}}, {"type": "Feature", "properties": {"name": "BGS Health City Gate Abhiman Studio"}, "geometry": {"type": "Point", "coordinates": [77.49921, 12.90706]}}, {"type": "Feature", "properties": {"name": "Kengeri Club"}, "geometry": {"type": "Point", "coordinates": [77.47306, 12.9234]}}, {"type": "Feature", "properties": {"name": "Kengeri Ganesha Temple"}, "geometry": {"type": "Point", "coordinates": [77.48037, 12.91143]}}, {"type": "Feature", "properties": {"name": "Kengeri Bus Station"}, "geometry": {"type": "Point", "coordinates": [77.4871, 12.91379]}}, {"type": "Feature", "properties": {"name": "Omkar Hills"}, "geometry": {"type": "Point", "coordinates": [77.50457, 12.90478]}}, {"type": "Feature", "properties": {"name": "Maruthi Nagara"}, "geometry": {"type": "Point", "coordinates": [77.47944, 12.93983]}}, {"type": "Feature", "properties": {"name": "Shivaji Hotel"}, "geometry": {"type": "Point", "coordinates": [77.4766, 12.943]}}, {"type": "Feature", "properties": {"name": "Depot-12 Gate"}, "geometry": {"type": "Point", "coordinates": [77.47068, 12.90481]}}, {"type": "Feature", "properties": {"name": "Channasandra"}, "geometry": {"type": "Point", "coordinates": [77.52129, 12.90285]}}, {"type": "Feature", "properties": {"name": "Kengeri Police Station"}, "geometry": {"type": "Point", "coordinates": [77.48206, 12.91044]}}, {"type": "Feature", "properties": {"name": "JSS College"}, "geometry": {"type": "Point", "coordinates": [77.50819, 12.90386]}}, {"type": "Feature", "properties": {"name": "Depot-12 Gate"}, "geometry": {"type": "Point", "coordinates": [77.47084, 12.90471]}}, {"type": "Feature", "properties": {"name": "BUC ADM Block"}, "geometry": {"type": "Point", "coordinates": [77.50086, 12.95005]}}, {"type": "Feature", "properties": {"name": "Sonnenahalli"}, "geometry": {"type": "Point", "coordinates": [77.4792, 12.94215]}}, {"type": "Feature", "properties": {"name": "Kengeri Church"}, "geometry": {"type": "Point", "coordinates": [77.48661, 12.92826]}}, {"type": "Feature", "properties": {"name": "Channasandra"}, "geometry": {"type": "Point", "coordinates": [77.52139, 12.90285]}}, {"type": "Feature", "properties": {"name": "Channasandra Colony"}, "geometry": {"type": "Point", "coordinates": [77.51628, 12.90335]}}, {"type": "Feature", "properties": {"name": "RV College"}, "geometry": {"type": "Point", "coordinates": [77.49936, 12.92521]}}, {"type": "Feature", "properties": {"name": "Kodipalya"}, "geometry": {"type": "Point", "coordinates": [77.48781, 12.9037]}}, {"type": "Feature", "properties": {"name": "Dubasipalya"}, "geometry": {"type": "Point", "coordinates": [77.4952, 12.92747]}}, {"type": "Feature", "properties": {"name": "Sridhara Gudda"}, "geometry": {"type": "Point", "coordinates": [77.48761, 12.89914]}}, {"type": "Feature", "properties": {"name": "PVP School"}, "geometry": {"type": "Point", "coordinates": [77.49716, 12.9484]}}, {"type": "Feature", "properties": {"name": "NICE Road Kengeri Road Junction"}, "geometry": {"type": "Point", "coordinates": [77.46926, 12.90224]}}, {"type": "Feature", "properties": {"name": "hyundai showroom mysore road"}, "geometry": {"type": "Point", "coordinates": [77.50204, 12.92754]}}, {"type": "Feature", "properties": {"name": "Kommaghatta"}, "geometry": {"type": "Point", "coordinates": [77.46502, 12.93007]}}, {"type": "Feature", "properties": {"name": "Chikka Basti Masjid"}, "geometry": {"type": "Point", "coordinates": [77.47403, 12.94178]}}, {"type": "Feature", "properties": {"name": "Mariyappanapalya"}, "geometry": {"type": "Point", "coordinates": [77.49545, 12.94515]}}, {"type": "Feature", "properties": {"name": "Beedi Karmikara Colony Gate"}, "geometry": {"type": "Point", "coordinates": [77.47492, 12.92228]}}, {"type": "Feature", "properties": {"name": "Kengeri Satellite Town"}, "geometry": {"type": "Point", "coordinates": [77.48474, 12.92332]}}, {"type": "Feature", "properties": {"name": "Kommaghatta"}, "geometry": {"type": "Point", "coordinates": [77.46513, 12.92994]}}, {"type": "Feature", "properties": {"name": "Lakshmi Temple"}, "geometry": {"type": "Point", "coordinates": [77.49841, 12.88637]}}, {"type": "Feature", "properties": {"name": "RV College"}, "geometry": {"type": "Point", "coordinates": [77.49918, 12.92529]}}, {"type": "Feature", "properties": {"name": "Kengeri Post Office"}, "geometry": {"type": "Point", "coordinates": [77.4819, 12.91553]}}, {"type": "Feature", "properties": {"name": "Mylasandra Cross"}, "geometry": {"type": "Point", "coordinates": [77.49039, 12.91751]}}, {"type": "Feature", "properties": {"name": "Channasandra Colony"}, "geometry": {"type": "Point", "coordinates": [77.5164, 12.90331]}}, {"type": "Feature", "properties": {"name": "Anchepalya"}, "geometry": {"type": "Point", "coordinates": [77.45795, 12.89261]}}, {"type": "Feature", "properties": {"name": "Kengeri Club"}, "geometry": {"type": "Point", "coordinates": [77.47297, 12.92355]}}, {"type": "Feature", "properties": {"name": "Bengaluru University Gate"}, "geometry": {"type": "Point", "coordinates": [77.51332, 12.93573]}}, {"type": "Feature", "properties": {"name": "Maruthi Nagara"}, "geometry": {"type": "Point", "coordinates": [77.47956, 12.93992]}}, {"type": "Feature", "properties": {"name": "Basavanagara Kengeri"}, "geometry": {"type": "Point", "coordinates": [77.46736, 12.90096]}}, {"type": "Feature", "properties": {"name": "Lakshmi Temple"}, "geometry": {"type": "Point", "coordinates": [77.4985, 12.88632]}}]}