{"type": "FeatureCollection", "features": [{"type": "Feature", "properties": {"name": "Jayanagara 4th Block"}, "geometry": {"type": "Point", "coordinates": [77.58602, 12.92915]}}, {"type": "Feature", "properties": {"name": "KR Market (Kalasipalya)"}, "geometry": {"type": "Point", "coordinates": [77.57711, 12.95916]}}, {"type": "Feature", "properties": {"name": "South End Circle"}, "geometry": {"type": "Point", "coordinates": [77.58016, 12.93625]}}, {"type": "Feature", "properties": {"name": "Sangam Circle"}, "geometry": {"type": "Point", "coordinates": [77.57875, 12.91704]}}, {"type": "Feature", "properties": {"name": "Lalbagh West Gate"}, "geometry": {"type": "Point", "coordinates": [77.57993, 12.94963]}}, {"type": "Feature", "properties": {"name": "R V Teachers College"}, "geometry": {"type": "Point", "coordinates": [77.57999, 12.94486]}}, {"type": "Feature", "properties": {"name": "KR Market"}, "geometry": {"type": "Point", "coordinates": [77.57742, 12.96368]}}, {"type": "Feature", "properties": {"name": "Shanthi Talkies"}, "geometry": {"type": "Point", "coordinates": [77.57724, 12.93686]}}, {"type": "Feature", "properties": {"name": "Jayanagara 40th Cross"}, "geometry": {"type": "Point", "coordinates": [77.58068, 12.91989]}}, {"type": "Feature", "properties": {"name": "Yadiyuru"}, "geometry": {"type": "Point", "coordinates": [77.57623, 12.93067]}}, {"type": "Feature", "properties": {"name": "Chamarajapet"}, "geometry": {"type": "Point", "coordinates": [77.56744, 12.95627]}}, {"type": "Feature", "properties": {"name": "Ramakrishna Ashrama"}, "geometry": {"type": "Point", "coordinates": [77.56774, 12.94945]}}, {"type": "Feature", "properties": {"name": "Mysore Bank"}, "geometry": {"type": "Point", "coordinates": [77.58199, 12.97253]}}, {"type": "Feature", "properties": {"name": "JP Nagara Metro Station"}, "geometry": {"type": "Point", "coordinates": [77.57299, 12.90795]}}, {"type": "Feature", "properties": {"name": "Gandhi Bazaar"}, "geometry": {"type": "Point", "coordinates": [77.57014, 12.94622]}}, {"type": "Feature", "properties": {"name": "Gunasheela Hospital"}, "geometry": {"type": "Point", "coordinates": [77.57646, 12.94057]}}, {"type": "Feature", "properties": {"name": "Corporation"}, "geometry": {"type": "Point", "coordinates": [77.58778, 12.9648]}}, {"type": "Feature", "properties": {"name": "Mysore Road TollGate"}, "geometry": {"type": "Point", "coordinates": [77.55178, 12.95738]}}, {"type": "Feature", "properties": {"name": "Jayanagar 6th block"}, "geometry": {"type": "Point", "coordinates": [77.57775, 12.93081]}}, {"type": "Feature", "properties": {"name": "Lalbagh Metro Station"}, "geometry": {"type": "Point", "coordinates": [77.57999, 12.94705]}}, {"type": "Feature", "properties": {"name": "Deepak Nursing Home"}, "geometry": {"type": "Point", "coordinates": [77.57711, 12.92598]}}, {"type": "Feature", "properties": {"name": "R V Teachers College"}, "geometry": {"type": "Point", "coordinates": [77.58012, 12.94447]}}, {"type": "Feature", "properties": {"name": "South End Circle"}, "geometry": {"type": "Point", "coordinates": [77.57965, 12.93717]}}, {"type": "Feature", "properties": {"name": "Sangam Circle"}, "geometry": {"type": "Point", "coordinates": [77.57789, 12.91756]}}, {"type": "Feature", "properties": {"name": "TR Mill"}, "geometry": {"type": "Point", "coordinates": [77.55921, 12.95683]}}, {"type": "Feature", "properties": {"name": "JP Nagara Metro Station"}, "geometry": {"type": "Point", "coordinates": [77.57312, 12.908]}}, {"type": "Feature", "properties": {"name": "Sarakki"}, "geometry": {"type": "Point", "coordinates": [77.57299, 12.9097]}}, {"type": "Feature", "properties": {"name": "Banashankari Hunasemara"}, "geometry": {"type": "Point", "coordinates": [77.57413, 12.91966]}}, {"type": "Feature", "properties": {"name": "Marenahalli"}, "geometry": {"type": "Point", "coordinates": [77.58575, 12.91552]}}, {"type": "Feature", "properties": {"name": "Chamarajapet"}, "geometry": {"type": "Point", "coordinates": [77.56705, 12.95707]}}, {"type": "Feature", "properties": {"name": "Banashankari"}, "geometry": {"type": "Point", "coordinates": [77.57373, 12.91631]}}, {"type": "Feature", "properties": {"name": "Nagasandra Circle"}, "geometry": {"type": "Point", "coordinates": [77.57195, 12.93698]}}, {"type": "Feature", "properties": {"name": "Hunasemara"}, "geometry": {"type": "Point", "coordinates": [77.57423, 12.91966]}}, {"type": "Feature", "properties": {"name": "Corporation"}, "geometry": {"type": "Point", "coordinates": [77.58822, 12.96701]}}, {"type": "Feature", "properties": {"name": "KR Market"}, "geometry": {"type": "Point", "coordinates": [77.5756, 12.96207]}}, {"type": "Feature", "properties": {"name": "Lalbagh Main Gate"}, "geometry": {"type": "Point", "coordinates": [77.58336, 12.95251]}}, {"type": "Feature", "properties": {"name": "Vijaya College"}, "geometry": {"type": "Point", "coordinates": [77.58002, 12.94001]}}, {"type": "Feature", "properties": {"name": "Madhavan Park"}, "geometry": {"type": "Point", "coordinates": [77.58308, 12.93675]}}, {"type": "Feature", "properties": {"name": "Bharathi Nursing Home Jayanagara"}, "geometry": {"type": "Point", "coordinates": [77.57404, 12.9369]}}, {"type": "Feature", "properties": {"name": "North Road"}, "geometry": {"type": "Point", "coordinates": [77.57066, 12.94828]}}, {"type": "Feature", "properties": {"name": "Jayanagar 6th block"}, "geometry": {"type": "Point", "coordinates": [77.57878, 12.9309]}}, {"type": "Feature", "properties": {"name": "Madhavan Park"}, "geometry": {"type": "Point", "coordinates": [77.58401, 12.93651]}}, {"type": "Feature", "properties": {"name": "Jayanagara Telephone Exchange"}, "geometry": {"type": "Point", "coordinates": [77.58382, 12.92381]}}, {"type": "Feature", "properties": {"name": "New Guddadahalli"}, "geometry": {"type": "Point", "coordinates": [77.54761, 12.95641]}}, {"type": "Feature", "properties": {"name": "Town Hall"}, "geometry": {"type": "Point", "coordinates": [77.58375, 12.96355]}}, {"type": "Feature", "properties": {"name": "18th Main Jayanagara"}, "geometry": {"type": "Point", "coordinates": [77.58964, 12.92343]}}, {"type": "Feature", "properties": {"name": "RV Dental College"}, "geometry": {"type": "Point", "coordinates": [77.5857, 12.91137]}}, {"type": "Feature", "properties": {"name": "New Guddadahalli"}, "geometry": {"type": "Point", "coordinates": [77.54596, 12.95587]}}, {"type": "Feature", "properties": {"name": "Jayanagara Church"}, "geometry": {"type": "Point", "coordinates": [77.58961, 12.92715]}}, {"type": "Feature", "properties": {"name": "Sajjan Rao Circle"}, "geometry": {"type": "Point", "coordinates": [77.57653, 12.95262]}}, {"type": "Feature", "properties": {"name": "Jayanagara 38th Cross"}, "geometry": {"type": "Point", "coordinates": [77.58365, 12.92146]}}, {"type": "Feature", "properties": {"name": "Jaraganahalli Cross"}, "geometry": {"type": "Point", "coordinates": [77.57344, 12.9014]}}, {"type": "Feature", "properties": {"name": "Basappa Circle"}, "geometry": {"type": "Point", "coordinates": [77.57721, 12.95624]}}, {"type": "Feature", "properties": {"name": "Mysore Road TollGate"}, "geometry": {"type": "Point", "coordinates": [77.55319, 12.95768]}}, {"type": "Feature", "properties": {"name": "Yadiyuru"}, "geometry": {"type": "Point", "coordinates": [77.5763, 12.93071]}}, {"type": "Feature", "properties": {"name": "South End Circle"}, "geometry": {"type": "Point", "coordinates": [77.58128, 12.9368]}}, {"type": "Feature", "properties": {"name": "Sarakki"}, "geometry": {"type": "Point", "coordinates": [77.57288, 12.90966]}}, {"type": "Feature", "properties": {"name": "National college"}, "geometry": {"type": "Point", "coordinates": [77.57804, 12.92462]}}, {"type": "Feature", "properties": {"name": "National College"}, "geometry": {"type": "Point", "coordinates": [77.57379, 12.94942]}}, {"type": "Feature", "properties": {"name": "Minerva Circle"}, "geometry": {"type": "Point", "coordinates": [77.57992, 12.95387]}}, {"type": "Feature", "properties": {"name": "KR Market (Kalasipalya)"}, "geometry": {"type": "Point", "coordinates": [77.57736, 12.96154]}}, {"type": "Feature", "properties": {"name": "JP Nagara 15th Cross"}, "geometry": {"type": "Point", "coordinates": [77.58581, 12.90665]}}, {"type": "Feature", "properties": {"name": "Jayanagara Telephone Exchange"}, "geometry": {"type": "Point", "coordinates": [77.58374, 12.92374]}}, {"type": "Feature", "properties": {"name": "JP Nagara 15th Cross"}, "geometry": {"type": "Point", "coordinates": [77.58567, 12.90707]}}, {"type": "Feature", "properties": {"name": "National College"}, "geometry": {"type": "Point", "coordinates": [77.57801, 12.92467]}}, {"type": "Feature", "properties": {"name": "Marenahalli"}, "geometry": {"type": "Point", "coordinates": [77.58588, 12.9149]}}, {"type": "Feature", "properties": {"name": "Sirsi Circle"}, "geometry": {"type": "Point", "coordinates": [77.55921, 12.96022]}}, {"type": "Feature", "properties": {"name": "Makkala Koota"}, "geometry": {"type": "Point", "coordinates": [77.57385, 12.95803]}}, {"type": "Feature", "properties": {"name": "Banashankari Bus Station"}, "geometry": {"type": "Point", "coordinates": [77.57272, 12.91779]}}, {"type": "Feature", "properties": {"name": "4th T Block Jayanagara"}, "geometry": {"type": "Point", "coordinates": [77.59345, 12.92308]}}, {"type": "Feature", "properties": {"name": "5th Block Jayanagara"}, "geometry": {"type": "Point", "coordinates": [77.58368, 12.91732]}}, {"type": "Feature", "properties": {"name": "Deepak Nursing Home"}, "geometry": {"type": "Point", "coordinates": [77.57699, 12.92518]}}, {"type": "Feature", "properties": {"name": "Jaraganahalli Cross"}, "geometry": {"type": "Point", "coordinates": [77.57331, 12.90142]}}, {"type": "Feature", "properties": {"name": "Basavanagudi Police Station"}, "geometry": {"type": "Point", "coordinates": [77.57384, 12.94172]}}, {"type": "Feature", "properties": {"name": "Rama Mandira Chamarajapet"}, "geometry": {"type": "Point", "coordinates": [77.56381, 12.95703]}}, {"type": "Feature", "properties": {"name": "Makkala Koota"}, "geometry": {"type": "Point", "coordinates": [77.57376, 12.95661]}}, {"type": "Feature", "properties": {"name": "Lalbagh West Gate (Lalbagh Metro Station)"}, "geometry": {"type": "Point", "coordinates": [77.58009, 12.94758]}}, {"type": "Feature", "properties": {"name": "Corporation"}, "geometry": {"type": "Point", "coordinates": [77.58675, 12.96839]}}, {"type": "Feature", "properties": {"name": "3rd Block Jayanagara"}, "geometry": {"type": "Point", "coordinates": [77.58396, 12.93349]}}, {"type": "Feature", "properties": {"name": "Banashankari Bus Station"}, "geometry": {"type": "Point", "coordinates": [77.5727, 12.91736]}}, {"type": "Feature", "properties": {"name": "Nandini Hotel JP Nagara"}, "geometry": {"type": "Point", "coordinates": [77.58581, 12.90512]}}, {"type": "Feature", "properties": {"name": "Jayanagara Church"}, "geometry": {"type": "Point", "coordinates": [77.58741, 12.92828]}}, {"type": "Feature", "properties": {"name": "9th Block Jayanagara (40th Cross)"}, "geometry": {"type": "Point", "coordinates": [77.59247, 12.91969]}}, {"type": "Feature", "properties": {"name": "Nanda Talkies"}, "geometry": {"type": "Point", "coordinates": [77.58022, 12.93222]}}, {"type": "Feature", "properties": {"name": "Inchara Hotel JP Nagar"}, "geometry": {"type": "Point", "coordinates": [77.5858, 12.90272]}}, {"type": "Feature", "properties": {"name": "Mahila Seva Samaja"}, "geometry": {"type": "Point", "coordinates": [77.57379, 12.95362]}}, {"type": "Feature", "properties": {"name": "Town Hall"}, "geometry": {"type": "Point", "coordinates": [77.58515, 12.96361]}}, {"type": "Feature", "properties": {"name": "MN Krishna Rao Park"}, "geometry": {"type": "Point", "coordinates": [77.57689, 12.94405]}}, {"type": "Feature", "properties": {"name": "R V Dental College"}, "geometry": {"type": "Point", "coordinates": [77.58579, 12.90988]}}, {"type": "Feature", "properties": {"name": "Nagasandra Circle"}, "geometry": {"type": "Point", "coordinates": [77.57191, 12.93691]}}, {"type": "Feature", "properties": {"name": "Jayanagar 6th block"}, "geometry": {"type": "Point", "coordinates": [77.57812, 12.93066]}}, {"type": "Feature", "properties": {"name": "Shanthi Talkies"}, "geometry": {"type": "Point", "coordinates": [77.57899, 12.93669]}}, {"type": "Feature", "properties": {"name": "Mysore Circle"}, "geometry": {"type": "Point", "coordinates": [77.55962, 12.96111]}}, {"type": "Feature", "properties": {"name": "Nanda Talkies"}, "geometry": {"type": "Point", "coordinates": [77.58007, 12.93327]}}, {"type": "Feature", "properties": {"name": "Nettakallappa Circle"}, "geometry": {"type": "Point", "coordinates": [77.57214, 12.93949]}}, {"type": "Feature", "properties": {"name": "Sangam Circle"}, "geometry": {"type": "Point", "coordinates": [77.57733, 12.91763]}}, {"type": "Feature", "properties": {"name": "5th Block Jayanagara"}, "geometry": {"type": "Point", "coordinates": [77.58356, 12.91722]}}, {"type": "Feature", "properties": {"name": "Jayanagara Bus Station"}, "geometry": {"type": "Point", "coordinates": [77.58418, 12.92852]}}, {"type": "Feature", "properties": {"name": "Poornima Talkies"}, "geometry": {"type": "Point", "coordinates": [77.58813, 12.96082]}}, {"type": "Feature", "properties": {"name": "3rd Block Jayanagara"}, "geometry": {"type": "Point", "coordinates": [77.58392, 12.9318]}}, {"type": "Feature", "properties": {"name": "Bengaluru High School"}, "geometry": {"type": "Point", "coordinates": [77.56762, 12.95325]}}, {"type": "Feature", "properties": {"name": "Jayanagara Bus Station"}, "geometry": {"type": "Point", "coordinates": [77.58475, 12.92864]}}, {"type": "Feature", "properties": {"name": "Jayanagar 6 block"}, "geometry": {"type": "Point", "coordinates": [77.57816, 12.93069]}}, {"type": "Feature", "properties": {"name": "4th T Block Jayanagara"}, "geometry": {"type": "Point", "coordinates": [77.59353, 12.92307]}}, {"type": "Feature", "properties": {"name": "Auto Gas/Royal School"}, "geometry": {"type": "Point", "coordinates": [77.58585, 12.90133]}}, {"type": "Feature", "properties": {"name": "Inchara Hotel JP Nagar"}, "geometry": {"type": "Point", "coordinates": [77.5832, 12.90252]}}, {"type": "Feature", "properties": {"name": "Ramakrishna Ashrama"}, "geometry": {"type": "Point", "coordinates": [77.56765, 12.94898]}}, {"type": "Feature", "properties": {"name": "St Marthas Hospital"}, "geometry": {"type": "Point", "coordinates": [77.58716, 12.96945]}}, {"type": "Feature", "properties": {"name": "Basavanagudi Police Station"}, "geometry": {"type": "Point", "coordinates": [77.57374, 12.94158]}}, {"type": "Feature", "properties": {"name": "Jayanagara  38th Cross"}, "geometry": {"type": "Point", "coordinates": [77.58376, 12.92101]}}, {"type": "Feature", "properties": {"name": "Bengaluru High School"}, "geometry": {"type": "Point", "coordinates": [77.56749, 12.95209]}}, {"type": "Feature", "properties": {"name": "Bharathi Nursing Home Jayanagara"}, "geometry": {"type": "Point", "coordinates": [77.57396, 12.93683]}}, {"type": "Feature", "properties": {"name": "Jayanagara Bus Station"}, "geometry": {"type": "Point", "coordinates": [77.58364, 12.92802]}}, {"type": "Feature", "properties": {"name": "Vijaya College"}, "geometry": {"type": "Point", "coordinates": [77.58013, 12.94067]}}, {"type": "Feature", "properties": {"name": "Yadiyuru"}, "geometry": {"type": "Point", "coordinates": [77.57646, 12.93085]}}, {"type": "Feature", "properties": {"name": "KR Circle"}, "geometry": {"type": "Point", "coordinates": [77.58661, 12.97386]}}, {"type": "Feature", "properties": {"name": "Nettakallappa Circle"}, "geometry": {"type": "Point", "coordinates": [77.57182, 12.93924]}}, {"type": "Feature", "properties": {"name": "18th Main Jayanagara"}, "geometry": {"type": "Point", "coordinates": [77.58898, 12.92328]}}, {"type": "Feature", "properties": {"name": "Rama Mandira Chamarajapet"}, "geometry": {"type": "Point", "coordinates": [77.56302, 12.957]}}, {"type": "Feature", "properties": {"name": "Town Hall"}, "geometry": {"type": "Point", "coordinates": [77.58434, 12.96384]}}]}