{"type": "FeatureCollection", "features": [{"type": "Feature", "properties": {"name": "Manjunatha Kalyana Mantapa"}, "geometry": {"type": "Point", "coordinates": [77.53825, 12.87459]}}, {"type": "Feature", "properties": {"name": "Thalagattapura"}, "geometry": {"type": "Point", "coordinates": [77.53685, 12.86958]}}, {"type": "Feature", "properties": {"name": "Chinnayyanapalya Silk Farm"}, "geometry": {"type": "Point", "coordinates": [77.52329, 12.85347]}}, {"type": "Feature", "properties": {"name": "Gubbalala Gate"}, "geometry": {"type": "Point", "coordinates": [77.55134, 12.88431]}}, {"type": "Feature", "properties": {"name": "Thalagattapura Metro Station"}, "geometry": {"type": "Point", "coordinates": [77.53854, 12.87128]}}, {"type": "Feature", "properties": {"name": "Raghuvanahalli Cross"}, "geometry": {"type": "Point", "coordinates": [77.54602, 12.88072]}}, {"type": "Feature", "properties": {"name": "Doddakallasandra Metro Station"}, "geometry": {"type": "Point", "coordinates": [77.55312, 12.88467]}}, {"type": "Feature", "properties": {"name": "Vajarahalli Metro Station"}, "geometry": {"type": "Point", "coordinates": [77.54498, 12.87768]}}, {"type": "Feature", "properties": {"name": "Ganigarapalya"}, "geometry": {"type": "Point", "coordinates": [77.53297, 12.87618]}}, {"type": "Feature", "properties": {"name": "Chinnayyanapalya Silk Farm"}, "geometry": {"type": "Point", "coordinates": [77.52338, 12.85375]}}, {"type": "Feature", "properties": {"name": "Bayyanapalya"}, "geometry": {"type": "Point", "coordinates": [77.54355, 12.87554]}}, {"type": "Feature", "properties": {"name": "Ganigarapalya"}, "geometry": {"type": "Point", "coordinates": [77.53311, 12.87601]}}, {"type": "Feature", "properties": {"name": "Metro"}, "geometry": {"type": "Point", "coordinates": [77.56772, 12.89336]}}, {"type": "Feature", "properties": {"name": "Doddakallasandra Metro Station"}, "geometry": {"type": "Point", "coordinates": [77.55255, 12.88469]}}, {"type": "Feature", "properties": {"name": "Nagegowdanpalya Cross"}, "geometry": {"type": "Point", "coordinates": [77.51448, 12.85523]}}, {"type": "Feature", "properties": {"name": "Konanakunte Cross"}, "geometry": {"type": "Point", "coordinates": [77.56431, 12.89025]}}, {"type": "Feature", "properties": {"name": "Silk Institute metro station"}, "geometry": {"type": "Point", "coordinates": [77.52985, 12.86182]}}, {"type": "Feature", "properties": {"name": "Chikkegowdanapalya"}, "geometry": {"type": "Point", "coordinates": [77.51476, 12.87872]}}, {"type": "Feature", "properties": {"name": "Thalaghattapura Metro Station"}, "geometry": {"type": "Point", "coordinates": [77.53833, 12.87143]}}, {"type": "Feature", "properties": {"name": "Metro"}, "geometry": {"type": "Point", "coordinates": [77.56718, 12.89312]}}, {"type": "Feature", "properties": {"name": "NICE Road"}, "geometry": {"type": "Point", "coordinates": [77.52685, 12.85694]}}, {"type": "Feature", "properties": {"name": "Doddakallasandra"}, "geometry": {"type": "Point", "coordinates": [77.55671, 12.88596]}}, {"type": "Feature", "properties": {"name": "Chikkegowdanapalya"}, "geometry": {"type": "Point", "coordinates": [77.51467, 12.87877]}}, {"type": "Feature", "properties": {"name": "Agara Cross"}, "geometry": {"type": "Point", "coordinates": [77.52219, 12.84915]}}, {"type": "Feature", "properties": {"name": "Thalagattapura"}, "geometry": {"type": "Point", "coordinates": [77.53705, 12.86958]}}, {"type": "Feature", "properties": {"name": "Manjunatha Kalyana Mantapa"}, "geometry": {"type": "Point", "coordinates": [77.53819, 12.87474]}}, {"type": "Feature", "properties": {"name": "Konanakunte Cross  Metro Station"}, "geometry": {"type": "Point", "coordinates": [77.56257, 12.8889]}}, {"type": "Feature", "properties": {"name": "Chinnayyanapalya Silk Farm"}, "geometry": {"type": "Point", "coordinates": [77.52303, 12.85368]}}, {"type": "Feature", "properties": {"name": "Vajramuneshwara Gate"}, "geometry": {"type": "Point", "coordinates": [77.53314, 12.86483]}}, {"type": "Feature", "properties": {"name": "Doddakallasandra"}, "geometry": {"type": "Point", "coordinates": [77.5565, 12.88574]}}, {"type": "Feature", "properties": {"name": "Vajarahalli Metro Station"}, "geometry": {"type": "Point", "coordinates": [77.54459, 12.8773]}}, {"type": "Feature", "properties": {"name": "Bayyanapalya"}, "geometry": {"type": "Point", "coordinates": [77.54374, 12.87558]}}, {"type": "Feature", "properties": {"name": "Jyothi Farm"}, "geometry": {"type": "Point", "coordinates": [77.52896, 12.85993]}}, {"type": "Feature", "properties": {"name": "Vajramuneshwara Gate"}, "geometry": {"type": "Point", "coordinates": [77.53334, 12.86481]}}, {"type": "Feature", "properties": {"name": "Gubbalala Gate"}, "geometry": {"type": "Point", "coordinates": [77.55153, 12.88423]}}, {"type": "Feature", "properties": {"name": "Silk Institute Metro Station"}, "geometry": {"type": "Point", "coordinates": [77.52993, 12.8616]}}, {"type": "Feature", "properties": {"name": "Agara Cross"}, "geometry": {"type": "Point", "coordinates": [77.52207, 12.84899]}}, {"type": "Feature", "properties": {"name": "Konanakunte Cross  Metro Station"}, "geometry": {"type": "Point", "coordinates": [77.56306, 12.88907]}}, {"type": "Feature", "properties": {"name": "NICE Road Kanakapura Road Junction"}, "geometry": {"type": "Point", "coordinates": [77.52659, 12.85691]}}, {"type": "Feature", "properties": {"name": "Jyothi Farm"}, "geometry": {"type": "Point", "coordinates": [77.52876, 12.85983]}}, {"type": "Feature", "properties": {"name": "Raghuvanahalli Cross"}, "geometry": {"type": "Point", "coordinates": [77.54621, 12.88067]}}, {"type": "Feature", "properties": {"name": "Konanakunte Cross"}, "geometry": {"type": "Point", "coordinates": [77.56442, 12.89058]}}, {"type": "Feature", "properties": {"name": "Gattigerepalya"}, "geometry": {"type": "Point", "coordinates": [77.50223, 12.88369]}}, {"type": "Feature", "properties": {"name": "Kuppareddy Kere"}, "geometry": {"type": "Point", "coordinates": [77.5177, 12.84267]}}, {"type": "Feature", "properties": {"name": "Valley School Kanakapura Road"}, "geometry": {"type": "Point", "coordinates": [77.51004, 12.85436]}}, {"type": "Feature", "properties": {"name": "Kuppareddy Kere"}, "geometry": {"type": "Point", "coordinates": [77.51789, 12.84268]}}, {"type": "Feature", "properties": {"name": "Gattigerepalya"}, "geometry": {"type": "Point", "coordinates": [77.50221, 12.88356]}}]}