{"type": "FeatureCollection", "features": [{"type": "Feature", "properties": {"name": "National Games Village Gate"}, "geometry": {"type": "Point", "coordinates": [77.62039, 12.94928]}}, {"type": "Feature", "properties": {"name": "Mayohall G-2"}, "geometry": {"type": "Point", "coordinates": [77.61119, 12.97395]}}, {"type": "Feature", "properties": {"name": "Kodihalli"}, "geometry": {"type": "Point", "coordinates": [77.64758, 12.96]}}, {"type": "Feature", "properties": {"name": "Richmond Circle"}, "geometry": {"type": "Point", "coordinates": [77.59946, 12.96738]}}, {"type": "Feature", "properties": {"name": "Military Accounts Office"}, "geometry": {"type": "Point", "coordinates": [77.62117, 12.96691]}}, {"type": "Feature", "properties": {"name": "Maniksha Parade Ground"}, "geometry": {"type": "Point", "coordinates": [77.60771, 12.97746]}}, {"type": "Feature", "properties": {"name": "BRV Talkies Cubbon Road"}, "geometry": {"type": "Point", "coordinates": [77.60273, 12.97911]}}, {"type": "Feature", "properties": {"name": "Philomenas Hospital"}, "geometry": {"type": "Point", "coordinates": [77.61011, 12.96508]}}, {"type": "Feature", "properties": {"name": "Manipal Centre"}, "geometry": {"type": "Point", "coordinates": [77.61436, 12.97493]}}, {"type": "Feature", "properties": {"name": "Military Accounts Office"}, "geometry": {"type": "Point", "coordinates": [77.6203, 12.96707]}}, {"type": "Feature", "properties": {"name": "Electric B Station"}, "geometry": {"type": "Point", "coordinates": [77.61394, 12.97405]}}, {"type": "Feature", "properties": {"name": "Depot-06 Gate"}, "geometry": {"type": "Point", "coordinates": [77.63463, 12.98246]}}, {"type": "Feature", "properties": {"name": "Vivek Nagara Cross"}, "geometry": {"type": "Point", "coordinates": [77.62074, 12.95469]}}, {"type": "Feature", "properties": {"name": "Ravi Tent"}, "geometry": {"type": "Point", "coordinates": [77.62138, 12.95166]}}, {"type": "Feature", "properties": {"name": "Binnamangala"}, "geometry": {"type": "Point", "coordinates": [77.63834, 12.98331]}}, {"type": "Feature", "properties": {"name": "Trinity Circle"}, "geometry": {"type": "Point", "coordinates": [77.6197, 12.97093]}}, {"type": "Feature", "properties": {"name": "Koramangala Bus Station"}, "geometry": {"type": "Point", "coordinates": [77.62479, 12.9405]}}, {"type": "Feature", "properties": {"name": "Swamy Vivekananda Metro Station/Isolation Hospital"}, "geometry": {"type": "Point", "coordinates": [77.6452, 12.9859]}}, {"type": "Feature", "properties": {"name": "Indoor Stadium"}, "geometry": {"type": "Point", "coordinates": [77.62248, 12.94272]}}, {"type": "Feature", "properties": {"name": "BRV Talkies Cubbon Road"}, "geometry": {"type": "Point", "coordinates": [77.60223, 12.97941]}}, {"type": "Feature", "properties": {"name": "National Games Village Gate"}, "geometry": {"type": "Point", "coordinates": [77.61997, 12.94868]}}, {"type": "Feature", "properties": {"name": "ASC Centre"}, "geometry": {"type": "Point", "coordinates": [77.61901, 12.96224]}}, {"type": "Feature", "properties": {"name": "Maniksha Parade Ground"}, "geometry": {"type": "Point", "coordinates": [77.60747, 12.97773]}}, {"type": "Feature", "properties": {"name": "Manipal Centre MG Road"}, "geometry": {"type": "Point", "coordinates": [77.61356, 12.97552]}}, {"type": "Feature", "properties": {"name": "Lido Talkies"}, "geometry": {"type": "Point", "coordinates": [77.62005, 12.97346]}}, {"type": "Feature", "properties": {"name": "Commando Hospital"}, "geometry": {"type": "Point", "coordinates": [77.62756, 12.96271]}}, {"type": "Feature", "properties": {"name": "NAL/Manipal Hospital"}, "geometry": {"type": "Point", "coordinates": [77.65076, 12.95964]}}, {"type": "Feature", "properties": {"name": "Maharani College"}, "geometry": {"type": "Point", "coordinates": [77.5858, 12.97703]}}, {"type": "Feature", "properties": {"name": "Domlur Flyover"}, "geometry": {"type": "Point", "coordinates": [77.64352, 12.96048]}}, {"type": "Feature", "properties": {"name": "NAL Manipal Hospital"}, "geometry": {"type": "Point", "coordinates": [77.64991, 12.95961]}}, {"type": "Feature", "properties": {"name": "Halasuru"}, "geometry": {"type": "Point", "coordinates": [77.6283, 12.97793]}}, {"type": "Feature", "properties": {"name": "Passport Office Koramangala"}, "geometry": {"type": "Point", "coordinates": [77.61871, 12.94573]}}, {"type": "Feature", "properties": {"name": "Corporation"}, "geometry": {"type": "Point", "coordinates": [77.5893, 12.96815]}}, {"type": "Feature", "properties": {"name": "MG Road Electric B Station"}, "geometry": {"type": "Point", "coordinates": [77.61279, 12.97403]}}, {"type": "Feature", "properties": {"name": "Shivajinagara Bus Station"}, "geometry": {"type": "Point", "coordinates": [77.60304, 12.98328]}}, {"type": "Feature", "properties": {"name": "Shivajinagara Bus Station"}, "geometry": {"type": "Point", "coordinates": [77.60323, 12.98396]}}, {"type": "Feature", "properties": {"name": "Military Accounts Office"}, "geometry": {"type": "Point", "coordinates": [77.62089, 12.96694]}}, {"type": "Feature", "properties": {"name": "Halasuru Police Station"}, "geometry": {"type": "Point", "coordinates": [77.62564, 12.97515]}}, {"type": "Feature", "properties": {"name": "St Joseph College"}, "geometry": {"type": "Point", "coordinates": [77.60368, 12.97036]}}, {"type": "Feature", "properties": {"name": "Garuda Mall"}, "geometry": {"type": "Point", "coordinates": [77.61042, 12.96969]}}, {"type": "Feature", "properties": {"name": "St Joseph's Indian School/ Malya Hospital"}, "geometry": {"type": "Point", "coordinates": [77.5943, 12.97052]}}, {"type": "Feature", "properties": {"name": "Trinity Metro Station"}, "geometry": {"type": "Point", "coordinates": [77.61689, 12.97295]}}, {"type": "Feature", "properties": {"name": "Domlur"}, "geometry": {"type": "Point", "coordinates": [77.63667, 12.96122]}}, {"type": "Feature", "properties": {"name": "Trinity Circle"}, "geometry": {"type": "Point", "coordinates": [77.61959, 12.97071]}}, {"type": "Feature", "properties": {"name": "Vannarapet"}, "geometry": {"type": "Point", "coordinates": [77.62115, 12.95647]}}, {"type": "Feature", "properties": {"name": "Lido Talkies"}, "geometry": {"type": "Point", "coordinates": [77.6214, 12.97282]}}, {"type": "Feature", "properties": {"name": "Halasuru"}, "geometry": {"type": "Point", "coordinates": [77.62956, 12.97968]}}, {"type": "Feature", "properties": {"name": "Kodihalli"}, "geometry": {"type": "Point", "coordinates": [77.64687, 12.95997]}}, {"type": "Feature", "properties": {"name": "Domlur Flyover"}, "geometry": {"type": "Point", "coordinates": [77.64251, 12.96045]}}, {"type": "Feature", "properties": {"name": "Vivek Nagara Cross"}, "geometry": {"type": "Point", "coordinates": [77.62069, 12.95457]}}, {"type": "Feature", "properties": {"name": "Domlur"}, "geometry": {"type": "Point", "coordinates": [77.63809, 12.96111]}}, {"type": "Feature", "properties": {"name": "Vannarapet"}, "geometry": {"type": "Point", "coordinates": [77.62095, 12.95625]}}, {"type": "Feature", "properties": {"name": "Mayohall"}, "geometry": {"type": "Point", "coordinates": [77.6099, 12.97336]}}, {"type": "Feature", "properties": {"name": "Philips Millenium Halasuru"}, "geometry": {"type": "Point", "coordinates": [77.62443, 12.98196]}}, {"type": "Feature", "properties": {"name": "Commando Hospital"}, "geometry": {"type": "Point", "coordinates": [77.62641, 12.96364]}}, {"type": "Feature", "properties": {"name": "Depot-06 Gate"}, "geometry": {"type": "Point", "coordinates": [77.63503, 12.98262]}}, {"type": "Feature", "properties": {"name": "Ravi Tent"}, "geometry": {"type": "Point", "coordinates": [77.62148, 12.95169]}}, {"type": "Feature", "properties": {"name": "Sony World 80ft Road Koramangala"}, "geometry": {"type": "Point", "coordinates": [77.62639, 12.93782]}}, {"type": "Feature", "properties": {"name": "NGEF"}, "geometry": {"type": "Point", "coordinates": [77.64987, 12.98787]}}, {"type": "Feature", "properties": {"name": "St Marthas Hospital"}, "geometry": {"type": "Point", "coordinates": [77.58716, 12.96945]}}, {"type": "Feature", "properties": {"name": "Indian Express"}, "geometry": {"type": "Point", "coordinates": [77.5974, 12.98393]}}, {"type": "Feature", "properties": {"name": "ASC Centre"}, "geometry": {"type": "Point", "coordinates": [77.61906, 12.96245]}}, {"type": "Feature", "properties": {"name": "Life Style (Sacred Heart School)"}, "geometry": {"type": "Point", "coordinates": [77.61018, 12.96692]}}, {"type": "Feature", "properties": {"name": "KR Circle"}, "geometry": {"type": "Point", "coordinates": [77.58661, 12.97386]}}, {"type": "Feature", "properties": {"name": "Austin Town"}, "geometry": {"type": "Point", "coordinates": [77.61344, 12.96156]}}, {"type": "Feature", "properties": {"name": "Town Hall"}, "geometry": {"type": "Point", "coordinates": [77.58434, 12.96384]}}]}