{"type": "FeatureCollection", "features": [{"type": "Feature", "properties": {"name": "Kadugodi Bus Station"}, "geometry": {"type": "Point", "coordinates": [77.75855, 12.99563]}}, {"type": "Feature", "properties": {"name": "I Gate"}, "geometry": {"type": "Point", "coordinates": [77.71882, 12.97717]}}, {"type": "Feature", "properties": {"name": "Kalamandira  Marathahalli Bridge"}, "geometry": {"type": "Point", "coordinates": [77.70131, 12.96033]}}, {"type": "Feature", "properties": {"name": "Munnekolalu Cross (Spice Garden)"}, "geometry": {"type": "Point", "coordinates": [77.70878, 12.95634]}}, {"type": "Feature", "properties": {"name": "Kundalahalli Metro Station"}, "geometry": {"type": "Point", "coordinates": [77.71632, 12.97753]}}, {"type": "Feature", "properties": {"name": "GR Tech Park ITPL"}, "geometry": {"type": "Point", "coordinates": [77.74351, 12.98666]}}, {"type": "Feature", "properties": {"name": "Marathahalli Bridge"}, "geometry": {"type": "Point", "coordinates": [77.70053, 12.95488]}}, {"type": "Feature", "properties": {"name": "SAP Labs"}, "geometry": {"type": "Point", "coordinates": [77.71448, 12.97765]}}, {"type": "Feature", "properties": {"name": "Graphite India"}, "geometry": {"type": "Point", "coordinates": [77.71135, 12.97821]}}, {"type": "Feature", "properties": {"name": "EMC2"}, "geometry": {"type": "Point", "coordinates": [77.69301, 12.98256]}}, {"type": "Feature", "properties": {"name": "Mahadevapura Ring Road"}, "geometry": {"type": "Point", "coordinates": [77.6895, 12.98823]}}, {"type": "Feature", "properties": {"name": "Munnekolalu Cross (Spice Garden)"}, "geometry": {"type": "Point", "coordinates": [77.70953, 12.95636]}}, {"type": "Feature", "properties": {"name": "Whitefiled ACP Police Station"}, "geometry": {"type": "Point", "coordinates": [77.75079, 12.97533]}}, {"type": "Feature", "properties": {"name": "ITPL"}, "geometry": {"type": "Point", "coordinates": [77.73704, 12.98766]}}, {"type": "Feature", "properties": {"name": "Marathahalli"}, "geometry": {"type": "Point", "coordinates": [77.69409, 12.95626]}}, {"type": "Feature", "properties": {"name": "Munish Singh Hospital"}, "geometry": {"type": "Point", "coordinates": [77.75104, 12.97703]}}, {"type": "Feature", "properties": {"name": "CMRIT College"}, "geometry": {"type": "Point", "coordinates": [77.71447, 12.96763]}}, {"type": "Feature", "properties": {"name": "BEML Layout Gate"}, "geometry": {"type": "Point", "coordinates": [77.7165, 12.96054]}}, {"type": "Feature", "properties": {"name": "Kadugodi Bridge"}, "geometry": {"type": "Point", "coordinates": [77.75769, 12.99448]}}, {"type": "Feature", "properties": {"name": "Munish Singh Hospital"}, "geometry": {"type": "Point", "coordinates": [77.75122, 12.97738]}}, {"type": "Feature", "properties": {"name": "Big Bazzar ITPL"}, "geometry": {"type": "Point", "coordinates": [77.73197, 12.98823]}}, {"type": "Feature", "properties": {"name": "KTPO"}, "geometry": {"type": "Point", "coordinates": [77.72242, 12.9768]}}, {"type": "Feature", "properties": {"name": "Karthik Nagara"}, "geometry": {"type": "Point", "coordinates": [77.7017, 12.96821]}}, {"type": "Feature", "properties": {"name": "Hope Farm"}, "geometry": {"type": "Point", "coordinates": [77.75223, 12.98273]}}, {"type": "Feature", "properties": {"name": "Hope Farm"}, "geometry": {"type": "Point", "coordinates": [77.75261, 12.98429]}}, {"type": "Feature", "properties": {"name": "Kundalahalli"}, "geometry": {"type": "Point", "coordinates": [77.71571, 12.95815]}}, {"type": "Feature", "properties": {"name": "MVJ College Channasandra"}, "geometry": {"type": "Point", "coordinates": [77.76082, 12.98283]}}, {"type": "Feature", "properties": {"name": "Big Bazzar  ITPL"}, "geometry": {"type": "Point", "coordinates": [77.7318, 12.98795]}}, {"type": "Feature", "properties": {"name": "Whitefiled ACP Police Station"}, "geometry": {"type": "Point", "coordinates": [77.7507, 12.97538]}}, {"type": "Feature", "properties": {"name": "Kadugodi Bridge"}, "geometry": {"type": "Point", "coordinates": [77.75775, 12.99439]}}, {"type": "Feature", "properties": {"name": "Kalamandira Marathahalli Bridge"}, "geometry": {"type": "Point", "coordinates": [77.70143, 12.95993]}}, {"type": "Feature", "properties": {"name": "Multiplex Marathahalli"}, "geometry": {"type": "Point", "coordinates": [77.69956, 12.95154]}}, {"type": "Feature", "properties": {"name": "Sai Baba General Hospital"}, "geometry": {"type": "Point", "coordinates": [77.75042, 12.97383]}}, {"type": "Feature", "properties": {"name": "Pattandur Agrahara Gate"}, "geometry": {"type": "Point", "coordinates": [77.73354, 12.98803]}}, {"type": "Feature", "properties": {"name": "BPL"}, "geometry": {"type": "Point", "coordinates": [77.74768, 12.98531]}}, {"type": "Feature", "properties": {"name": "ITPL Metro Station"}, "geometry": {"type": "Point", "coordinates": [77.7373, 12.98774]}}, {"type": "Feature", "properties": {"name": "Sai Baba General Hospital"}, "geometry": {"type": "Point", "coordinates": [77.75065, 12.97454]}}, {"type": "Feature", "properties": {"name": "Kundalahalli Metro Station"}, "geometry": {"type": "Point", "coordinates": [77.71636, 12.9774]}}, {"type": "Feature", "properties": {"name": "ITPL Back Gate Big Bazzar"}, "geometry": {"type": "Point", "coordinates": [77.73165, 12.98658]}}, {"type": "Feature", "properties": {"name": "Hope Farm"}, "geometry": {"type": "Point", "coordinates": [77.75189, 12.9839]}}, {"type": "Feature", "properties": {"name": "Kundalahalli"}, "geometry": {"type": "Point", "coordinates": [77.71566, 12.95832]}}, {"type": "Feature", "properties": {"name": "Marathahalli"}, "geometry": {"type": "Point", "coordinates": [77.69372, 12.95611]}}, {"type": "Feature", "properties": {"name": "AECS Layout Cross"}, "geometry": {"type": "Point", "coordinates": [77.71832, 12.96495]}}, {"type": "Feature", "properties": {"name": "BEML Layout Gate"}, "geometry": {"type": "Point", "coordinates": [77.71641, 12.96083]}}, {"type": "Feature", "properties": {"name": "AECS Layout Cross"}, "geometry": {"type": "Point", "coordinates": [77.71827, 12.96511]}}, {"type": "Feature", "properties": {"name": "I Gate"}, "geometry": {"type": "Point", "coordinates": [77.71863, 12.97734]}}, {"type": "Feature", "properties": {"name": "White Field Bus Station (Vydehi Hospital)"}, "geometry": {"type": "Point", "coordinates": [77.72693, 12.9774]}}, {"type": "Feature", "properties": {"name": "Hope Farm"}, "geometry": {"type": "Point", "coordinates": [77.75145, 12.98424]}}, {"type": "Feature", "properties": {"name": "Hope Farm"}, "geometry": {"type": "Point", "coordinates": [77.75305, 12.98376]}}, {"type": "Feature", "properties": {"name": "MVJ College Channasandra"}, "geometry": {"type": "Point", "coordinates": [77.76121, 12.98286]}}, {"type": "Feature", "properties": {"name": "White Field Post Office"}, "geometry": {"type": "Point", "coordinates": [77.75, 12.97056]}}, {"type": "Feature", "properties": {"name": "Kundalahalli Colony"}, "geometry": {"type": "Point", "coordinates": [77.71245, 12.97052]}}, {"type": "Feature", "properties": {"name": "Marathahalli Bridge"}, "geometry": {"type": "Point", "coordinates": [77.70062, 12.95694]}}, {"type": "Feature", "properties": {"name": "White Field Post Office"}, "geometry": {"type": "Point", "coordinates": [77.75016, 12.96982]}}, {"type": "Feature", "properties": {"name": "BPL"}, "geometry": {"type": "Point", "coordinates": [77.74828, 12.98525]}}, {"type": "Feature", "properties": {"name": "Sathya Sai Hospital"}, "geometry": {"type": "Point", "coordinates": [77.72773, 12.9823]}}, {"type": "Feature", "properties": {"name": "GR Tech Park ITPL"}, "geometry": {"type": "Point", "coordinates": [77.74338, 12.98681]}}, {"type": "Feature", "properties": {"name": "Pattandur Agrahara Gate"}, "geometry": {"type": "Point", "coordinates": [77.73366, 12.9878]}}, {"type": "Feature", "properties": {"name": "Marathahalli Bridge"}, "geometry": {"type": "Point", "coordinates": [77.70215, 12.9569]}}, {"type": "Feature", "properties": {"name": "Multiplex Marathahalli"}, "geometry": {"type": "Point", "coordinates": [77.70002, 12.95227]}}, {"type": "Feature", "properties": {"name": "Kundalahalli Colony"}, "geometry": {"type": "Point", "coordinates": [77.71248, 12.97022]}}, {"type": "Feature", "properties": {"name": "White Field Bus Station (Vydehi Hospital)"}, "geometry": {"type": "Point", "coordinates": [77.72684, 12.97642]}}, {"type": "Feature", "properties": {"name": "ITPL Back Gate Big Bazzar"}, "geometry": {"type": "Point", "coordinates": [77.73171, 12.9863]}}, {"type": "Feature", "properties": {"name": "Kundalahalli Gate"}, "geometry": {"type": "Point", "coordinates": [77.71378, 12.95592]}}, {"type": "Feature", "properties": {"name": "Sathya Sai Hospital"}, "geometry": {"type": "Point", "coordinates": [77.72811, 12.9827]}}, {"type": "Feature", "properties": {"name": "Kundalahalli Gate"}, "geometry": {"type": "Point", "coordinates": [77.71499, 12.95674]}}, {"type": "Feature", "properties": {"name": "Graphite India"}, "geometry": {"type": "Point", "coordinates": [77.71005, 12.97705]}}, {"type": "Feature", "properties": {"name": "SAP Labs"}, "geometry": {"type": "Point", "coordinates": [77.71439, 12.97782]}}, {"type": "Feature", "properties": {"name": "ITPL Metro Station"}, "geometry": {"type": "Point", "coordinates": [77.7373, 12.98754]}}, {"type": "Feature", "properties": {"name": "CMRIT College"}, "geometry": {"type": "Point", "coordinates": [77.71389, 12.96764]}}, {"type": "Feature", "properties": {"name": "KTPO"}, "geometry": {"type": "Point", "coordinates": [77.72225, 12.97702]}}, {"type": "Feature", "properties": {"name": "Dodda Nekkundi Bridge/Rainbow Hospital"}, "geometry": {"type": "Point", "coordinates": [77.69764, 12.97499]}}, {"type": "Feature", "properties": {"name": "Marathahalli Bridge"}, "geometry": {"type": "Point", "coordinates": [77.70131, 12.95671]}}, {"type": "Feature", "properties": {"name": "ITPL"}, "geometry": {"type": "Point", "coordinates": [77.73636, 12.98754]}}]}