{"type": "FeatureCollection", "features": [{"type": "Feature", "properties": {"name": "Rajagopalanagara"}, "geometry": {"type": "Point", "coordinates": [77.50881, 13.01368]}}, {"type": "Feature", "properties": {"name": "Goraguntepalya"}, "geometry": {"type": "Point", "coordinates": [77.5395, 13.02895]}}, {"type": "Feature", "properties": {"name": "Tata Institute"}, "geometry": {"type": "Point", "coordinates": [77.56755, 13.01313]}}, {"type": "Feature", "properties": {"name": "Peenya Industry Metro Station"}, "geometry": {"type": "Point", "coordinates": [77.52613, 13.03556]}}, {"type": "Feature", "properties": {"name": "Tata Institute"}, "geometry": {"type": "Point", "coordinates": [77.56382, 13.01514]}}, {"type": "Feature", "properties": {"name": "CPRI"}, "geometry": {"type": "Point", "coordinates": [77.57489, 13.01484]}}, {"type": "Feature", "properties": {"name": "Devinagara Cross"}, "geometry": {"type": "Point", "coordinates": [77.5692, 13.04692]}}, {"type": "Feature", "properties": {"name": "Lurdubayi Samudaya Bhavana"}, "geometry": {"type": "Point", "coordinates": [77.52339, 12.99723]}}, {"type": "Feature", "properties": {"name": "Jalahalli Cross"}, "geometry": {"type": "Point", "coordinates": [77.51843, 13.03949]}}, {"type": "Feature", "properties": {"name": "Systems Peenya"}, "geometry": {"type": "Point", "coordinates": [77.51794, 13.03497]}}, {"type": "Feature", "properties": {"name": "CMTI"}, "geometry": {"type": "Point", "coordinates": [77.53641, 13.0307]}}, {"type": "Feature", "properties": {"name": "Nandhini Layout"}, "geometry": {"type": "Point", "coordinates": [77.5307, 13.01466]}}, {"type": "Feature", "properties": {"name": "MEI Factory"}, "geometry": {"type": "Point", "coordinates": [77.54402, 13.0264]}}, {"type": "Feature", "properties": {"name": "Tata Institute"}, "geometry": {"type": "Point", "coordinates": [77.56803, 13.01437]}}, {"type": "Feature", "properties": {"name": "Peenya Satellite Bus Station"}, "geometry": {"type": "Point", "coordinates": [77.52554, 13.04409]}}, {"type": "Feature", "properties": {"name": "Subramanyanagara Police Station"}, "geometry": {"type": "Point", "coordinates": [77.55341, 13.0034]}}, {"type": "Feature", "properties": {"name": "Malleshwara 18th Cross"}, "geometry": {"type": "Point", "coordinates": [77.56918, 13.00894]}}, {"type": "Feature", "properties": {"name": "Rolling Mill"}, "geometry": {"type": "Point", "coordinates": [77.51474, 13.02653]}}, {"type": "Feature", "properties": {"name": "Malleshwara 18th Cross"}, "geometry": {"type": "Point", "coordinates": [77.57112, 13.00906]}}, {"type": "Feature", "properties": {"name": "MES Road"}, "geometry": {"type": "Point", "coordinates": [77.55436, 13.04392]}}, {"type": "Feature", "properties": {"name": "Jalahalli Bakery"}, "geometry": {"type": "Point", "coordinates": [77.54977, 13.04254]}}, {"type": "Feature", "properties": {"name": "Navarang Theatre"}, "geometry": {"type": "Point", "coordinates": [77.55292, 12.99839]}}, {"type": "Feature", "properties": {"name": "Peenya 14th cross"}, "geometry": {"type": "Point", "coordinates": [77.50566, 13.01646]}}, {"type": "Feature", "properties": {"name": "CMTI"}, "geometry": {"type": "Point", "coordinates": [77.53561, 13.03143]}}, {"type": "Feature", "properties": {"name": "Harishchandra Ghat"}, "geometry": {"type": "Point", "coordinates": [77.56047, 12.99729]}}, {"type": "Feature", "properties": {"name": "Alisda"}, "geometry": {"type": "Point", "coordinates": [77.54112, 13.03404]}}, {"type": "Feature", "properties": {"name": "BEL Circle"}, "geometry": {"type": "Point", "coordinates": [77.55806, 13.04376]}}, {"type": "Feature", "properties": {"name": "Rajkumar Punya Bhoomi"}, "geometry": {"type": "Point", "coordinates": [77.53163, 13.01818]}}, {"type": "Feature", "properties": {"name": "Subramanyanagara Police Station"}, "geometry": {"type": "Point", "coordinates": [77.55356, 13.00347]}}, {"type": "Feature", "properties": {"name": "Govardhan Talkies"}, "geometry": {"type": "Point", "coordinates": [77.55339, 13.01884]}}, {"type": "Feature", "properties": {"name": "CQAEL CQEAE Complex"}, "geometry": {"type": "Point", "coordinates": [77.5415, 13.03664]}}, {"type": "Feature", "properties": {"name": "BEL Factory"}, "geometry": {"type": "Point", "coordinates": [77.55861, 13.04887]}}, {"type": "Feature", "properties": {"name": "RMC Yard (Yeshawanthapura New Railway Station)"}, "geometry": {"type": "Point", "coordinates": [77.54776, 13.02462]}}, {"type": "Feature", "properties": {"name": "Jalahalli Village"}, "geometry": {"type": "Point", "coordinates": [77.54718, 13.04165]}}, {"type": "Feature", "properties": {"name": "Brundavana Peenya"}, "geometry": {"type": "Point", "coordinates": [77.50815, 13.02038]}}, {"type": "Feature", "properties": {"name": "TVS Cross Peenya"}, "geometry": {"type": "Point", "coordinates": [77.51957, 13.02868]}}, {"type": "Feature", "properties": {"name": "Govardhan Talkies"}, "geometry": {"type": "Point", "coordinates": [77.55274, 13.02]}}, {"type": "Feature", "properties": {"name": "Nandini Layout Ring Road"}, "geometry": {"type": "Point", "coordinates": [77.52853, 13.0116]}}, {"type": "Feature", "properties": {"name": "Nandhini Layout"}, "geometry": {"type": "Point", "coordinates": [77.53052, 13.01473]}}, {"type": "Feature", "properties": {"name": "MEI Factory"}, "geometry": {"type": "Point", "coordinates": [77.54439, 13.02652]}}, {"type": "Feature", "properties": {"name": "Peenya Industry Metro Station"}, "geometry": {"type": "Point", "coordinates": [77.52579, 13.03599]}}, {"type": "Feature", "properties": {"name": "BEL Circle"}, "geometry": {"type": "Point", "coordinates": [77.55489, 13.04402]}}, {"type": "Feature", "properties": {"name": "Alisda"}, "geometry": {"type": "Point", "coordinates": [77.54098, 13.03392]}}, {"type": "Feature", "properties": {"name": "Kempegowda Arch"}, "geometry": {"type": "Point", "coordinates": [77.52538, 13.00171]}}, {"type": "Feature", "properties": {"name": "Mariyappanapalya"}, "geometry": {"type": "Point", "coordinates": [77.55574, 12.99858]}}, {"type": "Feature", "properties": {"name": "TVS Cross Peenya"}, "geometry": {"type": "Point", "coordinates": [77.51953, 13.02835]}}, {"type": "Feature", "properties": {"name": "Lurdubayi Samudaya Bhavana"}, "geometry": {"type": "Point", "coordinates": [77.52334, 12.99752]}}, {"type": "Feature", "properties": {"name": "Goraguntepalya"}, "geometry": {"type": "Point", "coordinates": [77.54123, 13.02835]}}, {"type": "Feature", "properties": {"name": "Peenya 2nd Stage"}, "geometry": {"type": "Point", "coordinates": [77.5068, 13.01098]}}, {"type": "Feature", "properties": {"name": "Laggere Bridge"}, "geometry": {"type": "Point", "coordinates": [77.52664, 13.00843]}}, {"type": "Feature", "properties": {"name": "Malleshwara 13th Cross"}, "geometry": {"type": "Point", "coordinates": [77.56923, 13.00408]}}, {"type": "Feature", "properties": {"name": "Mariyappanapalya"}, "geometry": {"type": "Point", "coordinates": [77.55652, 12.99862]}}, {"type": "Feature", "properties": {"name": "Rolling Mill"}, "geometry": {"type": "Point", "coordinates": [77.51486, 13.02648]}}, {"type": "Feature", "properties": {"name": "Govardhan Talkies"}, "geometry": {"type": "Point", "coordinates": [77.55339, 13.01853]}}, {"type": "Feature", "properties": {"name": "Kuvempu Circle"}, "geometry": {"type": "Point", "coordinates": [77.56263, 13.04465]}}, {"type": "Feature", "properties": {"name": "Goraguntepalya  Ring Road"}, "geometry": {"type": "Point", "coordinates": [77.53707, 13.02997]}}, {"type": "Feature", "properties": {"name": "Malleshwara 11th Cross"}, "geometry": {"type": "Point", "coordinates": [77.5693, 13.00238]}}, {"type": "Feature", "properties": {"name": "Muthyalanagara"}, "geometry": {"type": "Point", "coordinates": [77.55325, 13.04374]}}, {"type": "Feature", "properties": {"name": "RMC Yard (Yashawanthapura New Railway Station)"}, "geometry": {"type": "Point", "coordinates": [77.54877, 13.02366]}}, {"type": "Feature", "properties": {"name": "Laggere Bridge"}, "geometry": {"type": "Point", "coordinates": [77.52678, 13.00756]}}, {"type": "Feature", "properties": {"name": "Nandini Layout Ring Road"}, "geometry": {"type": "Point", "coordinates": [77.52872, 13.01159]}}, {"type": "Feature", "properties": {"name": "Peenya Metro Station"}, "geometry": {"type": "Point", "coordinates": [77.53297, 13.03299]}}, {"type": "Feature", "properties": {"name": "Brundavana Peenya"}, "geometry": {"type": "Point", "coordinates": [77.50803, 13.02024]}}, {"type": "Feature", "properties": {"name": "Kuvempu Circle"}, "geometry": {"type": "Point", "coordinates": [77.56281, 13.04457]}}, {"type": "Feature", "properties": {"name": "Reliance Petrol Bunk Goraguntepalya"}, "geometry": {"type": "Point", "coordinates": [77.5363, 13.02866]}}, {"type": "Feature", "properties": {"name": "8th Mile Dasarahalli"}, "geometry": {"type": "Point", "coordinates": [77.50755, 13.04622]}}, {"type": "Feature", "properties": {"name": "8th Mile Dasarahalli"}, "geometry": {"type": "Point", "coordinates": [77.50795, 13.04541]}}, {"type": "Feature", "properties": {"name": "T Dasarahalli"}, "geometry": {"type": "Point", "coordinates": [77.51288, 13.04309]}}, {"type": "Feature", "properties": {"name": "Kanteerava Studio"}, "geometry": {"type": "Point", "coordinates": [77.53252, 13.02138]}}, {"type": "Feature", "properties": {"name": "Jalahalli Village"}, "geometry": {"type": "Point", "coordinates": [77.54725, 13.04179]}}, {"type": "Feature", "properties": {"name": "NTTF Peenya"}, "geometry": {"type": "Point", "coordinates": [77.51092, 13.02443]}}, {"type": "Feature", "properties": {"name": "CPRI"}, "geometry": {"type": "Point", "coordinates": [77.57499, 13.01473]}}, {"type": "Feature", "properties": {"name": "Jalahalli Bakery"}, "geometry": {"type": "Point", "coordinates": [77.54978, 13.04264]}}, {"type": "Feature", "properties": {"name": "Goraguntepalya  Ring Road"}, "geometry": {"type": "Point", "coordinates": [77.53688, 13.02993]}}, {"type": "Feature", "properties": {"name": "NTTF Peenya"}, "geometry": {"type": "Point", "coordinates": [77.51135, 13.02514]}}, {"type": "Feature", "properties": {"name": "SRS Peenya"}, "geometry": {"type": "Point", "coordinates": [77.52987, 13.03471]}}, {"type": "Feature", "properties": {"name": "Vivekananda College"}, "geometry": {"type": "Point", "coordinates": [77.55449, 13.00927]}}, {"type": "Feature", "properties": {"name": "Bhadrappa Layout"}, "geometry": {"type": "Point", "coordinates": [77.57339, 13.0472]}}, {"type": "Feature", "properties": {"name": "MES Road"}, "geometry": {"type": "Point", "coordinates": [77.5543, 13.04403]}}, {"type": "Feature", "properties": {"name": "T Dasarahalli"}, "geometry": {"type": "Point", "coordinates": [77.51276, 13.04283]}}, {"type": "Feature", "properties": {"name": "Peenya Satellite Bus Station (Basaveshwara)"}, "geometry": {"type": "Point", "coordinates": [77.5253, 13.04375]}}, {"type": "Feature", "properties": {"name": "Jalahalli Cross"}, "geometry": {"type": "Point", "coordinates": [77.51879, 13.0399]}}, {"type": "Feature", "properties": {"name": "Goraguntepalya"}, "geometry": {"type": "Point", "coordinates": [77.54012, 13.02951]}}, {"type": "Feature", "properties": {"name": "CQAEL CQEAE Complex"}, "geometry": {"type": "Point", "coordinates": [77.54174, 13.03713]}}, {"type": "Feature", "properties": {"name": "Yeshawanthapura Bus Station"}, "geometry": {"type": "Point", "coordinates": [77.55657, 13.01771]}}, {"type": "Feature", "properties": {"name": "Rajkumar Punya Bhoomi"}, "geometry": {"type": "Point", "coordinates": [77.5319, 13.01859]}}, {"type": "Feature", "properties": {"name": "Navarang Theatre"}, "geometry": {"type": "Point", "coordinates": [77.55293, 12.99866]}}, {"type": "Feature", "properties": {"name": "Kempegowda Arch"}, "geometry": {"type": "Point", "coordinates": [77.52556, 13.00174]}}, {"type": "Feature", "properties": {"name": "Yeshawanthapura Bus Station"}, "geometry": {"type": "Point", "coordinates": [77.55662, 13.01801]}}, {"type": "Feature", "properties": {"name": "Kanteerava Studio"}, "geometry": {"type": "Point", "coordinates": [77.5327, 13.02263]}}, {"type": "Feature", "properties": {"name": "Govt Soap Factory"}, "geometry": {"type": "Point", "coordinates": [77.55438, 13.01309]}}, {"type": "Feature", "properties": {"name": "BEL Circle"}, "geometry": {"type": "Point", "coordinates": [77.55654, 13.04588]}}, {"type": "Feature", "properties": {"name": "Devinagara Cross"}, "geometry": {"type": "Point", "coordinates": [77.56904, 13.047]}}, {"type": "Feature", "properties": {"name": "Govt Soap Factory"}, "geometry": {"type": "Point", "coordinates": [77.55385, 13.01352]}}, {"type": "Feature", "properties": {"name": "Peenya 14th Cross"}, "geometry": {"type": "Point", "coordinates": [77.50559, 13.01662]}}, {"type": "Feature", "properties": {"name": "Muthyalanagara"}, "geometry": {"type": "Point", "coordinates": [77.55315, 13.04362]}}, {"type": "Feature", "properties": {"name": "Systems Peenya"}, "geometry": {"type": "Point", "coordinates": [77.51806, 13.03506]}}, {"type": "Feature", "properties": {"name": "Malleshwara 15th Cross"}, "geometry": {"type": "Point", "coordinates": [77.57119, 13.00541]}}, {"type": "Feature", "properties": {"name": "Harishchandra Ghat"}, "geometry": {"type": "Point", "coordinates": [77.56089, 12.99695]}}, {"type": "Feature", "properties": {"name": "Reliance Petrol Bunk Goraguntepalya"}, "geometry": {"type": "Point", "coordinates": [77.53612, 13.02861]}}, {"type": "Feature", "properties": {"name": "BEL Circle"}, "geometry": {"type": "Point", "coordinates": [77.55669, 13.0452]}}, {"type": "Feature", "properties": {"name": "Modern Food Goraguntepalya"}, "geometry": {"type": "Point", "coordinates": [77.53395, 13.02482]}}, {"type": "Feature", "properties": {"name": "8th Mile Dasarahalli"}, "geometry": {"type": "Point", "coordinates": [77.50748, 13.0451]}}, {"type": "Feature", "properties": {"name": "SRS Peenya"}, "geometry": {"type": "Point", "coordinates": [77.53032, 13.03428]}}, {"type": "Feature", "properties": {"name": "Jalahalli Cross"}, "geometry": {"type": "Point", "coordinates": [77.51823, 13.03991]}}, {"type": "Feature", "properties": {"name": "Modern Food Goraguntepalya"}, "geometry": {"type": "Point", "coordinates": [77.53414, 13.02483]}}, {"type": "Feature", "properties": {"name": "Vivekananda College"}, "geometry": {"type": "Point", "coordinates": [77.55431, 13.00804]}}, {"type": "Feature", "properties": {"name": "Peenya 2nd stage"}, "geometry": {"type": "Point", "coordinates": [77.50694, 13.01094]}}]}